{"features":[{"geometry":{"coordinates":[7.6875484585,48.4914209419],"type":"Point"},"properties":{"code":"23A","description":null,"id":"ALSCH_01","name":"Albert Schweitzer","wheelchair_boarding":"unknown"},"type":"Feature"},{"geometry":{"coordinates":[7.772212252,48.545659324],"type":"Point"},"properties":{"code":"293B","description":null,"id":"INGOL_02","name":"Ingold","wheelchair_boarding":"unknown"},"type":"Feature"},{"geometry":{"coordinates":[7.6945000146,48.6805248284],"type":"Point"},"properties":{"code":"166A","description":null,"id":"ECMAI_01","name":"Eckwersheim Mairie","wheelchair_boarding":"unknown"},"type":"Feature"},{"geometry":{"coordinates":[7.7392896533,48.5549109755],"type":"Point"},"properties":{"code":"44B","description":null,"id":"BARTI_02","name":"Bartischgut","wheelchair_boarding":"unknown"},"type":"Feature"},{"geometry":{"coordinates":[7.7680622041,48.5772845801],"type":"Point"},"properties":{"code":"543A","description":null,"id":"ROMEE_01","name":"Rome","wheelchair_boarding":"unknown"},"type":"Feature"},{"geometry":{"coordinates":[7.6933642302,48.5031918845],"type":"Point"},"properties":{"code":"125B","description":null,"id":"COLIL_02","name":"Colonel Lilly","wheelchair_boarding":"unknown"},"type":"Feature"},{"geometry":{"coordinates":[7.7117822021,48.6102714417],"type":"Point"},"properties":{"code":"721F","description":null,"id":"LONDR_06","name":"Londres","wheelchair_boarding":"unknown"},"type":"Feature"},{"geometry":{"coordinates":[7.6981726871,48.59020997],"type":"Point"},"properties":{"code":"452C","description":null,"id":"PAELU_03","name":"Paul Eluard","wheelchair_boarding":"unknown"},"type":"Feature"},{"geometry":{"coordinates":[7.6904522414,48.5805046219],"type":"Point"},"properties":{"code":"297B","description":null,"id":"JAROS_02","name":"Jardin des Roses","wheelchair_boarding":"unknown"},"type":"Feature"},{"geometry":{"coordinates":[7.7140565901,48.4841473507],"type":"Point"},"properties":{"code":"183A","description":null,"id":"ESMAI_01","name":"Eschau Mairie","wheelchair_boarding":"unknown"},"type":"Feature"},{"geometry":{"coordinates":[7.7596924128,48.6141900575],"type":"Point"},"properties":{"code":"384B","description":null,"id":"MARGU_02","name":"Marguerite","wheelchair_boarding":"unknown"},"type":"Feature"},{"geometry":{"coordinates":[7.677335186,48.58924398],"type":"Point"},"properties":{"code":"102A","description":null,"id":"PAACE_02","name":"Parc d'activités d'Eckbolsheim Zénith","wheelchair_boarding":"unknown"},"type":"Feature"},{"geometry":{"coordinates":[7.6880049731,48.5625401573],"type":"Point"},"properties":{"code":"632A","description":null,"id":"TOURA_01","name":"Touraine","wheelchair_boarding":"unknown"},"type":"Feature"},{"geometry":{"coordinates":[7.7697332203,48.5645315474],"type":"Point"},"properties":{"code":"367B","description":null,"id":"LYJMO_02","name":"Lycée Jean Monnet","wheelchair_boarding":"unknown"},"type":"Feature"},{"geometry":{"coordinates":[7.731433779,48.578494496],"type":"Point"},"properties":{"code":"436A","description":null,"id":"OBLYO_01","name":"Obernai-Lyon","wheelchair_boarding":"unknown"},"type":"Feature"},{"geometry":{"coordinates":[7.7093912288,48.5466641293],"type":"Point"},"properties":{"code":"647E","description":null,"id":"VERMA_05","name":"Vernois Mangold","wheelchair_boarding":"unknown"},"type":"Feature"},{"geometry":{"coordinates":[7.7383120736,48.6144359768],"type":"Point"},"properties":{"code":"225B","description":null,"id":"FRLUM_02","name":"Frères Lumière","wheelchair_boarding":"unknown"},"type":"Feature"},{"geometry":{"coordinates":[7.710542588,48.5505346736],"type":"Point"},"properties":{"code":"448B","description":null,"id":"OSHVI_06","name":"Ostwald Hôtel de Ville","wheelchair_boarding":"unknown"},"type":"Feature"},{"geometry":{"coordinates":[7.6871462853,48.4960176287],"type":"Point"},"properties":{"code":"560B","description":null,"id":"RUETA_03","name":"Rue de l'Etang","wheelchair_boarding":"unknown"},"type":"Feature"},{"geometry":{"coordinates":[7.7260788547,48.5679159914],"type":"Point"},"properties":{"code":"175D","description":null,"id":"ELSAU_04","name":"Elsau","wheelchair_boarding":"unknown"},"type":"Feature"},{"geometry":{"coordinates":[7.7597984809,48.5873058028],"type":"Point"},"properties":{"code":"512B","description":null,"id":"POVOS_02","name":"Pont des Vosges","wheelchair_boarding":"unknown"},"type":"Feature"},{"geometry":{"coordinates":[7.7022310602,48.6476993915],"type":"Point"},"properties":{"code":"566B","description":null,"id":"RUMUN_02","name":"Rue de Mundolsheim","wheelchair_boarding":"unknown"},"type":"Feature"},{"geometry":{"coordinates":[7.7172491217,48.5064725143],"type":"Point"},"properties":{"code":"41A","description":null,"id":"BALLA_01","name":"Ballastière","wheelchair_boarding":"unknown"},"type":"Feature"},{"geometry":{"coordinates":[7.7015055343,48.5630063369],"type":"Point"},"properties":{"code":"396A","description":null,"id":"MOLKE_01","name":"Molkenbronn","wheelchair_boarding":"unknown"},"type":"Feature"},{"geometry":{"coordinates":[7.7805798954,48.5861939317],"type":"Point"},"properties":{"code":"673A","description":null,"id":"YPRES_01","name":"Ypres","wheelchair_boarding":"unknown"},"type":"Feature"},{"geometry":{"coordinates":[7.7537137166,48.6276859404],"type":"Point"},"properties":{"code":"215A","description":null,"id":"FOCHH_01","name":"Foch","wheelchair_boarding":"unknown"},"type":"Feature"},{"geometry":{"coordinates":[7.689070494,48.5591328546],"type":"Point"},"properties":{"code":"112A","description":null,"id":"CIRUS_01","name":"Cité Russi","wheelchair_boarding":"unknown"},"type":"Feature"},{"geometry":{"coordinates":[7.7591187931,48.5962057398],"type":"Point"},"properties":{"code":"796A","description":null,"id":"PACNG_01","name":"Palais de la musique et des Congrès","wheelchair_boarding":"unknown"},"type":"Feature"},{"geometry":{"coordinates":[7.7162973239,48.6046607456],"type":"Point"},"properties":{"code":"136D","description":null,"id":"CRARA_04","name":"Arago","wheelchair_boarding":"unknown"},"type":"Feature"},{"geometry":{"coordinates":[7.7352161126,48.555295615],"type":"Point"},"properties":{"code":"224B","description":null,"id":"FREBE_02","name":"Frères Eberts","wheelchair_boarding":"unknown"},"type":"Feature"},{"geometry":{"coordinates":[7.7577160498,48.5939028006],"type":"Point"},"properties":{"code":"368D","description":null,"id":"LYKLE_06","name":"Lycée Kléber","wheelchair_boarding":"unknown"},"type":"Feature"},{"geometry":{"coordinates":[7.7049761927,48.6099533167],"type":"Point"},"properties":{"code":"713A","description":null,"id":"SCCAM_01","name":"Schiltigheim Campus","wheelchair_boarding":"unknown"},"type":"Feature"},{"geometry":{"coordinates":[7.7421316587,48.5897523752],"type":"Point"},"properties":{"code":"633A","description":null,"id":"TRAVA_01","name":"Travail","wheelchair_boarding":"unknown"},"type":"Feature"},{"geometry":{"coordinates":[7.7566415505,48.5478580334],"type":"Point"},"properties":{"code":"100C","description":null,"id":"CIMEI_03","name":"Cité Meinau","wheelchair_boarding":"unknown"},"type":"Feature"},{"geometry":{"coordinates":[7.741823619,48.5899301127],"type":"Point"},"properties":{"code":"633B","description":null,"id":"TRAVA_02","name":"Travail","wheelchair_boarding":"unknown"},"type":"Feature"},{"geometry":{"coordinates":[7.7149799479,48.5317169788],"type":"Point"},"properties":{"code":"687A","description":null,"id":"PAKLI_01","name":"Parc Klinglin","wheelchair_boarding":"unknown"},"type":"Feature"},{"geometry":{"coordinates":[7.7817813679,48.6116767651],"type":"Point"},"properties":{"code":"459D","description":null,"id":"PAPET_04","name":"Papeterie","wheelchair_boarding":"unknown"},"type":"Feature"},{"geometry":{"coordinates":[7.7102162155,48.5398446629],"type":"Point"},"properties":{"code":"447A","description":null,"id":"OSBEL_01","name":"Ostwald Bellevue","wheelchair_boarding":"unknown"},"type":"Feature"},{"geometry":{"coordinates":[7.7220936092,48.6566533604],"type":"Point"},"properties":{"code":"676A","description":null,"id":"ZOCOM_01","name":"Zone Commerciale Nord","wheelchair_boarding":"unknown"},"type":"Feature"},{"geometry":{"coordinates":[7.7061087659,48.5645959992],"type":"Point"},"properties":{"code":"540C","description":null,"id":"PLOSW_03","name":"Place d'Ostwald","wheelchair_boarding":"unknown"},"type":"Feature"},{"geometry":{"coordinates":[7.7616248086,48.5313503357],"type":"Point"},"properties":{"code":"611A","description":null,"id":"STIGN_01","name":"Saint-Ignace","wheelchair_boarding":"unknown"},"type":"Feature"},{"geometry":{"coordinates":[7.7534772473,48.5748977215],"type":"Point"},"properties":{"code":"186F","description":null,"id":"ETOIL_02","name":"Etoile Bourse","wheelchair_boarding":"unknown"},"type":"Feature"},{"geometry":{"coordinates":[7.7155054856,48.5724720837],"type":"Point"},"properties":{"code":"429B","description":null,"id":"NICIG_02","name":"Nid de Cigognes","wheelchair_boarding":"unknown"},"type":"Feature"},{"geometry":{"coordinates":[7.7236921549,48.5665280866],"type":"Point"},"properties":{"code":"526B","description":null,"id":"REMBR_02","name":"Rembrandt","wheelchair_boarding":"unknown"},"type":"Feature"},{"geometry":{"coordinates":[7.7402586251,48.5492281379],"type":"Point"},"properties":{"code":"280E","description":null,"id":"HOHWA_03","name":"Hohwart","wheelchair_boarding":"unknown"},"type":"Feature"},{"geometry":{"coordinates":[7.7869905531,48.5363292422],"type":"Point"},"properties":{"code":"330B","description":null,"id":"LAROC_02","name":"La Rochelle","wheelchair_boarding":"unknown"},"type":"Feature"},{"geometry":{"coordinates":[7.6947459627,48.490401819],"type":"Point"},"properties":{"code":"139A","description":null,"id":"CRCHA_01","name":"Cressier Château d'eau","wheelchair_boarding":"unknown"},"type":"Feature"},{"geometry":{"coordinates":[7.6029090102,48.50449532],"type":"Point"},"properties":{"code":"247B","description":null,"id":"GLOEC_01","name":"Gloeckelsberg","wheelchair_boarding":"unknown"},"type":"Feature"},{"geometry":{"coordinates":[7.6837928965,48.5487273911],"type":"Point"},"properties":{"code":"311A","description":null,"id":"KASTL_01","name":"Kastler","wheelchair_boarding":"unknown"},"type":"Feature"},{"geometry":{"coordinates":[7.7508515169,48.5499399154],"type":"Point"},"properties":{"code":"289C","description":null,"id":"ILDFR_03","name":"Ile de France","wheelchair_boarding":"unknown"},"type":"Feature"},{"geometry":{"coordinates":[7.8256062654,48.6592985026],"type":"Point"},"properties":{"code":"358B","description":null,"id":"LWECO_02","name":"La Wantzenau Ecole","wheelchair_boarding":"unknown"},"type":"Feature"},{"geometry":{"coordinates":[7.7660958096,48.5513658288],"type":"Point"},"properties":{"code":"596F","description":null,"id":"STCHR_06","name":"Saint Christophe","wheelchair_boarding":"unknown"},"type":"Feature"},{"geometry":{"coordinates":[7.7299054499,48.5621576217],"type":"Point"},"properties":{"code":"637A","description":null,"id":"UNELS_01","name":"Unterelsau","wheelchair_boarding":"unknown"},"type":"Feature"},{"geometry":{"coordinates":[7.7338782128,48.5783235199],"type":"Point"},"properties":{"code":"375A","description":null,"id":"MAARM_01","name":"Musée d'Art Moderne","wheelchair_boarding":"unknown"},"type":"Feature"},{"geometry":{"coordinates":[7.7207851519,48.5267622009],"type":"Point"},"properties":{"code":"743B","description":null,"id":"PAMAL_02","name":"Parc Malraux","wheelchair_boarding":"unknown"},"type":"Feature"},{"geometry":{"coordinates":[7.7099782973,48.5275718609],"type":"Point"},"properties":{"code":"742D","description":null,"id":"COILL_04","name":"Cours de l'Illiade","wheelchair_boarding":"unknown"},"type":"Feature"},{"geometry":{"coordinates":[7.7329474108,48.5506783711],"type":"Point"},"properties":{"code":"137B","description":null,"id":"CRAVV_02","name":"CARSAT","wheelchair_boarding":"unknown"},"type":"Feature"},{"geometry":{"coordinates":[7.6964049246,48.5686368463],"type":"Point"},"properties":{"code":"683B","description":null,"id":"LACBE_02","name":"Lac - Berne","wheelchair_boarding":"unknown"},"type":"Feature"},{"geometry":{"coordinates":[7.7881901711,48.6172796276],"type":"Point"},"properties":{"code":"549B","description":null,"id":"ROSTA_01","name":"Robertsau Sainte Anne","wheelchair_boarding":"unknown"},"type":"Feature"},{"geometry":{"coordinates":[7.741750155,48.5880999],"type":"Point"},"properties":{"code":"759A","description":null,"id":"SQHAL_01","name":"Les Halles Square","wheelchair_boarding":"unknown"},"type":"Feature"},{"geometry":{"coordinates":[7.7478216419,48.6051150102],"type":"Point"},"properties":{"code":"574A","description":null,"id":"SCHMA_01","name":"Schiltigheim Mairie","wheelchair_boarding":"unknown"},"type":"Feature"},{"geometry":{"coordinates":[7.7435934171,48.5788739081],"type":"Point"},"properties":{"code":"620B","description":null,"id":"STTHO_02","name":"Saint Thomas Finkwiller","wheelchair_boarding":"unknown"},"type":"Feature"},{"geometry":{"coordinates":[7.6352414692,48.5328677685],"type":"Point"},"properties":{"code":"177A","description":null,"id":"ENCEN_01","name":"Entzheim Centre","wheelchair_boarding":"unknown"},"type":"Feature"},{"geometry":{"coordinates":[7.7753551304,48.584250191],"type":"Point"},"properties":{"code":"70A","description":null,"id":"BRXEL_01","name":"Bruxelles (Marché)","wheelchair_boarding":"unknown"},"type":"Feature"},{"geometry":{"coordinates":[7.6041259244,48.504549316],"type":"Point"},"properties":{"code":"247A","description":null,"id":"GLOEC_02","name":"Gloeckelsberg","wheelchair_boarding":"unknown"},"type":"Feature"},{"geometry":{"coordinates":[7.6663854126,48.580957827],"type":"Point"},"properties":{"code":"400A","description":null,"id":"MOULI_01","name":"Moulin","wheelchair_boarding":"unknown"},"type":"Feature"},{"geometry":{"coordinates":[7.7527990527,48.6454744936],"type":"Point"},"properties":{"code":"269A","description":null,"id":"HIRON_01","name":"Hirondelles","wheelchair_boarding":"unknown"},"type":"Feature"},{"geometry":{"coordinates":[7.7309900526,48.4977042525],"type":"Point"},"properties":{"code":"571B","description":null,"id":"SCHEI_02","name":"Scheidstein","wheelchair_boarding":"unknown"},"type":"Feature"},{"geometry":{"coordinates":[7.6853891462,48.5291691901],"type":"Point"},"properties":{"code":"244A","description":null,"id":"GEZOI_01","name":"Geispolsheim ZI","wheelchair_boarding":"unknown"},"type":"Feature"},{"geometry":{"coordinates":[7.7182921394,48.5732999495],"type":"Point"},"properties":{"code":"36A","description":null,"id":"CAMPI_01","name":"Camping","wheelchair_boarding":"unknown"},"type":"Feature"},{"geometry":{"coordinates":[7.7089242251,48.4886291665],"type":"Point"},"properties":{"code":"147B","description":null,"id":"DEGAU_02","name":"De Gaulle","wheelchair_boarding":"unknown"},"type":"Feature"},{"geometry":{"coordinates":[7.6442272961,48.5153557552],"type":"Point"},"properties":{"code":"241A","description":null,"id":"GEMAI_01","name":"Geispolsheim Mairie","wheelchair_boarding":"unknown"},"type":"Feature"},{"geometry":{"coordinates":[7.6453196257,48.515517439],"type":"Point"},"properties":{"code":"241B","description":null,"id":"GEMAI_02","name":"Geispolsheim Mairie","wheelchair_boarding":"unknown"},"type":"Feature"},{"geometry":{"coordinates":[7.6905728323,48.5640825858],"type":"Point"},"properties":{"code":"559A","description":null,"id":"RUECK_01","name":"Rue d'Eckbolsheim","wheelchair_boarding":"unknown"},"type":"Feature"},{"geometry":{"coordinates":[7.755936462,48.61362447],"type":"Point"},"properties":{"code":"380A","description":null,"id":"MALTE_01","name":"Malterie","wheelchair_boarding":"unknown"},"type":"Feature"},{"geometry":{"coordinates":[7.7095801845,48.6065045934],"type":"Point"},"properties":{"code":"294B","description":null,"id":"IUTPA_02","name":"IUT Pasteur","wheelchair_boarding":"unknown"},"type":"Feature"},{"geometry":{"coordinates":[7.7708600678,48.5741744859],"type":"Point"},"properties":{"code":"144D","description":null,"id":"DAVAI_02","name":"Danube Le Vaisseau","wheelchair_boarding":"unknown"},"type":"Feature"},{"geometry":{"coordinates":[7.7117879705,48.6378058421],"type":"Point"},"properties":{"code":"48D","description":null,"id":"BERLI_05","name":"Berlioz","wheelchair_boarding":"unknown"},"type":"Feature"},{"geometry":{"coordinates":[7.7778024567,48.5187257533],"type":"Point"},"properties":{"code":"758A","description":null,"id":"ROYAN_01","name":"Royan","wheelchair_boarding":"unknown"},"type":"Feature"},{"geometry":{"coordinates":[7.7175075659,48.5945722185],"type":"Point"},"properties":{"code":"709E","description":null,"id":"MAZEL_08","name":"Mathieu Zell","wheelchair_boarding":"unknown"},"type":"Feature"},{"geometry":{"coordinates":[7.7122936205,48.5142332134],"type":"Point"},"properties":{"code":"120B","description":null,"id":"COCHA_02","name":"Cor de Chasse","wheelchair_boarding":"unknown"},"type":"Feature"},{"geometry":{"coordinates":[7.7258921106,48.4704281262],"type":"Point"},"properties":{"code":"484A","description":null,"id":"PLOMA_01","name":"Plobsheim Mairie","wheelchair_boarding":"unknown"},"type":"Feature"},{"geometry":{"coordinates":[7.7551606444,48.6215413846],"type":"Point"},"properties":{"code":"281A","description":null,"id":"HOMAI_01","name":"Hoenheim Mairie","wheelchair_boarding":"unknown"},"type":"Feature"},{"geometry":{"coordinates":[7.7260499486,48.4701320417],"type":"Point"},"properties":{"code":"484B","description":null,"id":"PLOMA_02","name":"Plobsheim Mairie","wheelchair_boarding":"unknown"},"type":"Feature"},{"geometry":{"coordinates":[7.6788063021,48.5347364721],"type":"Point"},"properties":{"code":"823B","description":null,"id":"IMPRI_02","name":"Imprimeurs","wheelchair_boarding":"unknown"},"type":"Feature"},{"geometry":{"coordinates":[7.68418645,48.4937545088],"type":"Point"},"properties":{"code":"148A","description":null,"id":"DELAT_01","name":"De Lattre de Tassigny","wheelchair_boarding":"unknown"},"type":"Feature"},{"geometry":{"coordinates":[7.7026545878,48.6024275088],"type":"Point"},"properties":{"code":"381A","description":null,"id":"MAPAG_01","name":"Marcel Pagnol","wheelchair_boarding":"unknown"},"type":"Feature"},{"geometry":{"coordinates":[7.7146150747,48.6417310644],"type":"Point"},"properties":{"code":"416A","description":null,"id":"MUMAI_01","name":"Mundolsheim Mairie","wheelchair_boarding":"unknown"},"type":"Feature"},{"geometry":{"coordinates":[7.7217182768,48.5916167519],"type":"Point"},"properties":{"code":"597F","description":null,"id":"STFLO_08","name":"Saint Florent","wheelchair_boarding":"unknown"},"type":"Feature"},{"geometry":{"coordinates":[7.6889753851,48.5518316062],"type":"Point"},"properties":{"code":"515D","description":null,"id":"PROTE_04","name":"Protection","wheelchair_boarding":"unknown"},"type":"Feature"},{"geometry":{"coordinates":[7.8046495467,48.6315563351],"type":"Point"},"properties":{"code":"639B","description":null,"id":"UNJAE_02","name":"Unterjaegerhof","wheelchair_boarding":"unknown"},"type":"Feature"},{"geometry":{"coordinates":[7.7543456855,48.5781424065],"type":"Point"},"properties":{"code":"755B","description":null,"id":"AULIZ_02","name":"Austerlitz","wheelchair_boarding":"unknown"},"type":"Feature"},{"geometry":{"coordinates":[7.6893685735,48.5684090843],"type":"Point"},"properties":{"code":"684A","description":null,"id":"LACSO_01","name":"Lac - Soleure","wheelchair_boarding":"unknown"},"type":"Feature"},{"geometry":{"coordinates":[7.7103030548,48.539519167],"type":"Point"},"properties":{"code":"447B","description":null,"id":"OSBEL_02","name":"Ostwald Bellevue","wheelchair_boarding":"unknown"},"type":"Feature"},{"geometry":{"coordinates":[7.7342051722,48.5779814992],"type":"Point"},"properties":{"code":"375C","description":null,"id":"MAARM_04","name":"Musée d'Art Moderne","wheelchair_boarding":"unknown"},"type":"Feature"},{"geometry":{"coordinates":[7.7191155473,48.6027602639],"type":"Point"},"properties":{"code":"719B","description":null,"id":"LAVOI_02","name":"Lavoisier","wheelchair_boarding":"unknown"},"type":"Feature"},{"geometry":{"coordinates":[7.6870314605,48.5505125353],"type":"Point"},"properties":{"code":"123A","description":null,"id":"COGAL_01","name":"Collège Galilée","wheelchair_boarding":"unknown"},"type":"Feature"},{"geometry":{"coordinates":[7.7388550245,48.5878421937],"type":"Point"},"properties":{"code":"667B","description":null,"id":"WILSO_03","name":"Wilson Les Halles","wheelchair_boarding":"unknown"},"type":"Feature"},{"geometry":{"coordinates":[7.7719906345,48.5672958464],"type":"Point"},"properties":{"code":"298B","description":null,"id":"JAURE_02","name":"Jean Jaures","wheelchair_boarding":"unknown"},"type":"Feature"},{"geometry":{"coordinates":[7.7702653503,48.5814983767],"type":"Point"},"properties":{"code":"438D","description":null,"id":"OBSER_13","name":"Observatoire","wheelchair_boarding":"unknown"},"type":"Feature"},{"geometry":{"coordinates":[7.7620668179,48.5543623036],"type":"Point"},"properties":{"code":"47A","description":null,"id":"BERGE_01","name":"Bergerac","wheelchair_boarding":"unknown"},"type":"Feature"},{"geometry":{"coordinates":[7.7693030567,48.6132376058],"type":"Point"},"properties":{"code":"496A","description":null,"id":"POPHA_07","name":"Pont Phario","wheelchair_boarding":"unknown"},"type":"Feature"},{"geometry":{"coordinates":[7.695605488,48.58099908],"type":"Point"},"properties":{"code":"441D","description":null,"id":"OCTRO_03","name":"Octroi","wheelchair_boarding":"unknown"},"type":"Feature"},{"geometry":{"coordinates":[7.692666824,48.58217454],"type":"Point"},"properties":{"code":"850A","description":null,"id":"POTRO_01","name":"Poteries / Romains","wheelchair_boarding":"unknown"},"type":"Feature"},{"geometry":{"coordinates":[7.6548638398,48.5434746104],"type":"Point"},"properties":{"code":"288B","description":null,"id":"ICARE_02","name":"Icare","wheelchair_boarding":"unknown"},"type":"Feature"},{"geometry":{"coordinates":[7.7130161676,48.6031164005],"type":"Point"},"properties":{"code":"258B","description":null,"id":"HALDE_02","name":"Haldenbourg","wheelchair_boarding":"unknown"},"type":"Feature"},{"geometry":{"coordinates":[7.6949221864,48.5630429256],"type":"Point"},"properties":{"code":"804A","description":null,"id":"ROGAR_01","name":"Roethig Gare","wheelchair_boarding":"unknown"},"type":"Feature"},{"geometry":{"coordinates":[7.7199079323,48.6169173441],"type":"Point"},"properties":{"code":"182C","description":null,"id":"ESEUE_03","name":"Espace Européen de l' Entreprise","wheelchair_boarding":"unknown"},"type":"Feature"},{"geometry":{"coordinates":[7.7607417098,48.5986742366],"type":"Point"},"properties":{"code":"657A","description":null,"id":"WACKE_05","name":"Wacken","wheelchair_boarding":"unknown"},"type":"Feature"},{"geometry":{"coordinates":[7.693900979,48.5033082543],"type":"Point"},"properties":{"code":"125C","description":null,"id":"COLIL_03","name":"Colonel Lilly","wheelchair_boarding":"unknown"},"type":"Feature"},{"geometry":{"coordinates":[7.8234041717,48.6607128919],"type":"Point"},"properties":{"code":"364B","description":null,"id":"LWATI_02","name":"La Wantzenau Le Tilleul","wheelchair_boarding":"unknown"},"type":"Feature"},{"geometry":{"coordinates":[7.7780370041,48.605653388],"type":"Point"},"properties":{"code":"217B","description":null,"id":"FOLOU_02","name":"Fort Louis","wheelchair_boarding":"unknown"},"type":"Feature"},{"geometry":{"coordinates":[7.7260454616,48.5678183819],"type":"Point"},"properties":{"code":"175B","description":null,"id":"ELSAU_06","name":"Elsau","wheelchair_boarding":"unknown"},"type":"Feature"},{"geometry":{"coordinates":[7.703542275,48.58232411],"type":"Point"},"properties":{"code":"278C","description":null,"id":"HOHBE_03","name":"Hohberg","wheelchair_boarding":"unknown"},"type":"Feature"},{"geometry":{"coordinates":[7.7516757197,48.6341697352],"type":"Point"},"properties":{"code":"584B","description":null,"id":"SOCAN_02","name":"Souffelweyersheim Canal","wheelchair_boarding":"unknown"},"type":"Feature"},{"geometry":{"coordinates":[7.6565466607,48.5167758004],"type":"Point"},"properties":{"code":"581A","description":null,"id":"SENEE_01","name":"Séné","wheelchair_boarding":"unknown"},"type":"Feature"},{"geometry":{"coordinates":[7.7849257026,48.6034413946],"type":"Point"},"properties":{"code":"791B","description":null,"id":"MELAN_02","name":"Mélanie","wheelchair_boarding":"unknown"},"type":"Feature"},{"geometry":{"coordinates":[7.7499670122,48.6078781423],"type":"Point"},"properties":{"code":"386B","description":null,"id":"MAROU_02","name":"Maison Rouge","wheelchair_boarding":"unknown"},"type":"Feature"},{"geometry":{"coordinates":[7.694978848,48.4902793187],"type":"Point"},"properties":{"code":"139B","description":null,"id":"CRCHA_02","name":"Cressier Château d'eau","wheelchair_boarding":"unknown"},"type":"Feature"},{"geometry":{"coordinates":[7.7517477647,48.5686815266],"type":"Point"},"properties":{"code":"573B","description":null,"id":"SCHLU_02","name":"Schluthfeld","wheelchair_boarding":"unknown"},"type":"Feature"},{"geometry":{"coordinates":[7.7230339315,48.6013904043],"type":"Point"},"properties":{"code":"533D","description":null,"id":"RIETH_04","name":"Rieth","wheelchair_boarding":"unknown"},"type":"Feature"},{"geometry":{"coordinates":[7.7149144213,48.5815485207],"type":"Point"},"properties":{"code":"712B","description":null,"id":"GEROL_02","name":"Geroldseck","wheelchair_boarding":"unknown"},"type":"Feature"},{"geometry":{"coordinates":[7.6943671703,48.5984896538],"type":"Point"},"properties":{"code":"715A","description":null,"id":"PASPO_01","name":"Parc des Sports Zénith","wheelchair_boarding":"unknown"},"type":"Feature"},{"geometry":{"coordinates":[7.7328411689,48.5291822924],"type":"Point"},"properties":{"code":"75A","description":null,"id":"CAILL_06","name":"Campus d'Illkirch","wheelchair_boarding":"unknown"},"type":"Feature"},{"geometry":{"coordinates":[7.6966181666,48.5619623492],"type":"Point"},"properties":{"code":"624A","description":null,"id":"TANNE_03","name":"Tanneries","wheelchair_boarding":"unknown"},"type":"Feature"},{"geometry":{"coordinates":[7.7667328342,48.5874512021],"type":"Point"},"properties":{"code":"248A","description":null,"id":"GOLBE_01","name":"Golbery","wheelchair_boarding":"unknown"},"type":"Feature"},{"geometry":{"coordinates":[7.7535686422,48.5492154515],"type":"Point"},"properties":{"code":"577C","description":null,"id":"SCHUL_03","name":"Schulmeister","wheelchair_boarding":"unknown"},"type":"Feature"},{"geometry":{"coordinates":[7.7114586555,48.6406779795],"type":"Point"},"properties":{"code":"781B","description":null,"id":"SAULE_02","name":"Saules","wheelchair_boarding":"unknown"},"type":"Feature"},{"geometry":{"coordinates":[7.7684658737,48.5813788515],"type":"Point"},"properties":{"code":"438G","description":null,"id":"OBSER_07","name":"Observatoire","wheelchair_boarding":"unknown"},"type":"Feature"},{"geometry":{"coordinates":[7.7670382708,48.5464692514],"type":"Point"},"properties":{"code":"546E","description":null,"id":"ROREU_05","name":"Neuhof Rodolphe Reuss","wheelchair_boarding":"unknown"},"type":"Feature"},{"geometry":{"coordinates":[7.77393619,48.6128739655],"type":"Point"},"properties":{"code":"99A","description":null,"id":"CIILL_01","name":"Cité de l'Ill","wheelchair_boarding":"unknown"},"type":"Feature"},{"geometry":{"coordinates":[7.6900977448,48.5248924869],"type":"Point"},"properties":{"code":"748B","description":null,"id":"FOLEF_02","name":"Fort Lefèbvre","wheelchair_boarding":"unknown"},"type":"Feature"},{"geometry":{"coordinates":[7.7638310194,48.5614551192],"type":"Point"},"properties":{"code":"420C","description":null,"id":"GRAVI_03","name":"Gravière Stade de la Meinau","wheelchair_boarding":"unknown"},"type":"Feature"},{"geometry":{"coordinates":[7.7392361685,48.5681357116],"type":"Point"},"properties":{"code":"155B","description":null,"id":"DOUBS_02","name":"Doubs","wheelchair_boarding":"unknown"},"type":"Feature"},{"geometry":{"coordinates":[7.7489745989,48.5588129914],"type":"Point"},"properties":{"code":"366G","description":null,"id":"LYCOU_07","name":"Lycée Couffignal","wheelchair_boarding":"unknown"},"type":"Feature"},{"geometry":{"coordinates":[7.6362894043,48.5594445846],"type":"Point"},"properties":{"code":"260A","description":null,"id":"PEUPL_01","name":"Peupliers","wheelchair_boarding":"unknown"},"type":"Feature"},{"geometry":{"coordinates":[7.7105750888,48.5947510244],"type":"Point"},"properties":{"code":"187B","description":null,"id":"ETDOR_02","name":"Etoile d'Or","wheelchair_boarding":"unknown"},"type":"Feature"},{"geometry":{"coordinates":[7.7247472107,48.4885349374],"type":"Point"},"properties":{"code":"521A","description":null,"id":"PULVE_01","name":"Pulverlaechel","wheelchair_boarding":"unknown"},"type":"Feature"},{"geometry":{"coordinates":[7.6937158553,48.5641939031],"type":"Point"},"properties":{"code":"590A","description":null,"id":"SPORT_01","name":"Sports","wheelchair_boarding":"unknown"},"type":"Feature"},{"geometry":{"coordinates":[7.7541874721,48.6003257217],"type":"Point"},"properties":{"code":"530C","description":null,"id":"RIAAR_01","name":"Rives de l'Aar","wheelchair_boarding":"unknown"},"type":"Feature"},{"geometry":{"coordinates":[7.8281329694,48.6535246713],"type":"Point"},"properties":{"code":"191B","description":null,"id":"FAALE_02","name":"Faubourg d'Alençon","wheelchair_boarding":"unknown"},"type":"Feature"},{"geometry":{"coordinates":[7.7832833859,48.5238668674],"type":"Point"},"properties":{"code":"190G","description":null,"id":"EUROF_07","name":"Eurofret","wheelchair_boarding":"unknown"},"type":"Feature"},{"geometry":{"coordinates":[7.672913,48.491287],"type":"Point"},"properties":{"code":"346E","description":null,"id":"LIGAR_06","name":"Lipsheim Gare","wheelchair_boarding":"unknown"},"type":"Feature"},{"geometry":{"coordinates":[7.7206780879,48.623786532],"type":"Point"},"properties":{"code":"765A","description":null,"id":"TRIAG_01","name":"Triage","wheelchair_boarding":"unknown"},"type":"Feature"},{"geometry":{"coordinates":[7.6904407516,48.5298741949],"type":"Point"},"properties":{"code":"561C","description":null,"id":"RUFOR_03","name":"Rue du Fort","wheelchair_boarding":"unknown"},"type":"Feature"},{"geometry":{"coordinates":[7.7542283758,48.5489617666],"type":"Point"},"properties":{"code":"577D","description":null,"id":"SCHUL_04","name":"Schulmeister","wheelchair_boarding":"unknown"},"type":"Feature"},{"geometry":{"coordinates":[7.8040548196,48.6260234006],"type":"Point"},"properties":{"code":"227A","description":null,"id":"FUAMB_01","name":"Fuchs am Buckel","wheelchair_boarding":"unknown"},"type":"Feature"},{"geometry":{"coordinates":[7.7203461401,48.5269665007],"type":"Point"},"properties":{"code":"743A","description":null,"id":"PAMAL_01","name":"Parc Malraux","wheelchair_boarding":"unknown"},"type":"Feature"},{"geometry":{"coordinates":[7.7803852972,48.6116065934],"type":"Point"},"properties":{"code":"459A","description":null,"id":"PAPET_01","name":"Papeterie","wheelchair_boarding":"unknown"},"type":"Feature"},{"geometry":{"coordinates":[7.7672188745,48.608956099],"type":"Point"},"properties":{"code":"572A","description":null,"id":"SCHLE_01","name":"Schiltigheim le Marais","wheelchair_boarding":"unknown"},"type":"Feature"},{"geometry":{"coordinates":[7.7070828527,48.5857284078],"type":"Point"},"properties":{"code":"728A","description":null,"id":"FORGE_03","name":"Forges","wheelchair_boarding":"unknown"},"type":"Feature"},{"geometry":{"coordinates":[7.7033351361,48.5660699686],"type":"Point"},"properties":{"code":"55A","description":null,"id":"BLAES_01","name":"Blaesheim","wheelchair_boarding":"unknown"},"type":"Feature"},{"geometry":{"coordinates":[7.7684277251,48.5301714454],"type":"Point"},"properties":{"code":"127A","description":null,"id":"COLOM_01","name":"Colombes","wheelchair_boarding":"unknown"},"type":"Feature"},{"geometry":{"coordinates":[7.7494862804,48.5847727664],"type":"Point"},"properties":{"code":"67A","description":null,"id":"BROGL_01","name":"Broglie","wheelchair_boarding":"unknown"},"type":"Feature"},{"geometry":{"coordinates":[7.7161312848,48.4919083759],"type":"Point"},"properties":{"code":"11B","description":null,"id":"ABBAT_02","name":"Abbatiale","wheelchair_boarding":"unknown"},"type":"Feature"},{"geometry":{"coordinates":[7.694195533,48.53372145],"type":"Point"},"properties":{"code":"333A","description":null,"id":"LAVIG_01","name":"La Vigie","wheelchair_boarding":"unknown"},"type":"Feature"},{"geometry":{"coordinates":[7.7066086016,48.5916410642],"type":"Point"},"properties":{"code":"277B","description":null,"id":"HOHAU_02","name":"Hôpital de Hautepierre","wheelchair_boarding":"unknown"},"type":"Feature"},{"geometry":{"coordinates":[7.7103622688,48.5277925592],"type":"Point"},"properties":{"code":"742A","description":null,"id":"COILL_01","name":"Cours de l'Illiade","wheelchair_boarding":"unknown"},"type":"Feature"},{"geometry":{"coordinates":[7.7177056548,48.5058520335],"type":"Point"},"properties":{"code":"41B","description":null,"id":"BALLA_02","name":"Ballastière","wheelchair_boarding":"unknown"},"type":"Feature"},{"geometry":{"coordinates":[7.7368061232,48.582384274],"type":"Point"},"properties":{"code":"193A","description":null,"id":"FANAG_01","name":"Faubourg National Gare Centrale","wheelchair_boarding":"unknown"},"type":"Feature"},{"geometry":{"coordinates":[7.7575960983,48.6093156175],"type":"Point"},"properties":{"code":"677A","description":null,"id":"ZORNN_01","name":"Zorn","wheelchair_boarding":"unknown"},"type":"Feature"},{"geometry":{"coordinates":[7.7093674242,48.6329809309],"type":"Point"},"properties":{"code":"782A","description":null,"id":"SPESB_01","name":"Spesbourg","wheelchair_boarding":"unknown"},"type":"Feature"},{"geometry":{"coordinates":[7.754551582,48.6005736048],"type":"Point"},"properties":{"code":"530B","description":null,"id":"RIAAR_04","name":"Rives de l'Aar","wheelchair_boarding":"unknown"},"type":"Feature"},{"geometry":{"coordinates":[7.7538437065,48.5865531837],"type":"Point"},"properties":{"code":"527A","description":null,"id":"REPUB_01","name":"République","wheelchair_boarding":"unknown"},"type":"Feature"},{"geometry":{"coordinates":[7.7886029521,48.6175721352],"type":"Point"},"properties":{"code":"549C","description":null,"id":"ROSTA_02","name":"Robertsau Sainte Anne","wheelchair_boarding":"unknown"},"type":"Feature"},{"geometry":{"coordinates":[7.7287614718,48.4692155183],"type":"Point"},"properties":{"code":"619B","description":null,"id":"STPAU_02","name":"Saint Paul","wheelchair_boarding":"unknown"},"type":"Feature"},{"geometry":{"coordinates":[7.7665669391,48.5994021696],"type":"Point"},"properties":{"code":"464C","description":null,"id":"PARLE_05","name":"Parlement Européen","wheelchair_boarding":"unknown"},"type":"Feature"},{"geometry":{"coordinates":[7.7202449864,48.5663410959],"type":"Point"},"properties":{"code":"412A","description":null,"id":"MSCHO_01","name":"Martin Schongauer","wheelchair_boarding":"unknown"},"type":"Feature"},{"geometry":{"coordinates":[7.7283138235,48.6319691572],"type":"Point"},"properties":{"code":"231A","description":null,"id":"GAERT_01","name":"Gaertel","wheelchair_boarding":"unknown"},"type":"Feature"},{"geometry":{"coordinates":[7.705208644,48.5132289444],"type":"Point"},"properties":{"code":"825A","description":null,"id":"DEPAP_01","name":"Denis Papin","wheelchair_boarding":"unknown"},"type":"Feature"},{"geometry":{"coordinates":[7.7950023721,48.5690876658],"type":"Point"},"properties":{"code":"752B","description":null,"id":"JARIV_02","name":"Jardin des deux Rives","wheelchair_boarding":"unknown"},"type":"Feature"},{"geometry":{"coordinates":[7.7489174955,48.5582514233],"type":"Point"},"properties":{"code":"366H","description":null,"id":"LYCOU_08","name":"Lycée Couffignal","wheelchair_boarding":"unknown"},"type":"Feature"},{"geometry":{"coordinates":[7.704471566,48.57527656],"type":"Point"},"properties":{"code":"835B","description":null,"id":"MENTE_02","name":"Mentelin","wheelchair_boarding":"unknown"},"type":"Feature"},{"geometry":{"coordinates":[7.773175165,48.5836775229],"type":"Point"},"properties":{"code":"385A","description":null,"id":"MARNE_01","name":"Marne","wheelchair_boarding":"unknown"},"type":"Feature"},{"geometry":{"coordinates":[7.7548201652,48.586610517],"type":"Point"},"properties":{"code":"527D","description":null,"id":"REPUB_06","name":"République","wheelchair_boarding":"unknown"},"type":"Feature"},{"geometry":{"coordinates":[7.7666630128,48.5745090387],"type":"Point"},"properties":{"code":"664F","description":null,"id":"WICHU_06","name":"Winston Churchill","wheelchair_boarding":"unknown"},"type":"Feature"},{"geometry":{"coordinates":[7.7323120983,48.6154444751],"type":"Point"},"properties":{"code":"388A","description":null,"id":"MASEG_01","name":"Marc Seguin","wheelchair_boarding":"unknown"},"type":"Feature"},{"geometry":{"coordinates":[7.6906328378,48.5639681397],"type":"Point"},"properties":{"code":"559B","description":null,"id":"RUECK_02","name":"Rue d'Eckbolsheim","wheelchair_boarding":"unknown"},"type":"Feature"},{"geometry":{"coordinates":[7.744909555,48.5907259899],"type":"Point"},"properties":{"code":"485C","description":null,"id":"PLPIE_01","name":"Place de Pierre","wheelchair_boarding":"unknown"},"type":"Feature"},{"geometry":{"coordinates":[7.7377496847,48.5448638373],"type":"Point"},"properties":{"code":"38C","description":null,"id":"BAGGE_03","name":"Baggersee","wheelchair_boarding":"unknown"},"type":"Feature"},{"geometry":{"coordinates":[7.780434071,48.6114781135],"type":"Point"},"properties":{"code":"459B","description":null,"id":"PAPET_02","name":"Papeterie","wheelchair_boarding":"unknown"},"type":"Feature"},{"geometry":{"coordinates":[7.7264192802,48.5677235177],"type":"Point"},"properties":{"code":"175C","description":null,"id":"ELSAU_03","name":"Elsau","wheelchair_boarding":"unknown"},"type":"Feature"},{"geometry":{"coordinates":[7.7767541248,48.5690459825],"type":"Point"},"properties":{"code":"32I","description":null,"id":"ARIBR_01","name":"Aristide Briand","wheelchair_boarding":"unknown"},"type":"Feature"},{"geometry":{"coordinates":[7.7003257991,48.6230956727],"type":"Point"},"properties":{"code":"431B","description":null,"id":"NIMAI_02","name":"Niederhausbergen Mairie","wheelchair_boarding":"unknown"},"type":"Feature"},{"geometry":{"coordinates":[7.7030481398,48.5913716526],"type":"Point"},"properties":{"code":"143A","description":null,"id":"DANTE_01","name":"Dante","wheelchair_boarding":"unknown"},"type":"Feature"},{"geometry":{"coordinates":[7.7327266976,48.5292993959],"type":"Point"},"properties":{"code":"75B","description":null,"id":"CAILL_03","name":"Campus d'Illkirch","wheelchair_boarding":"unknown"},"type":"Feature"},{"geometry":{"coordinates":[7.6975804501,48.515045707],"type":"Point"},"properties":{"code":"173A","description":null,"id":"ELISA_01","name":"Elisa","wheelchair_boarding":"unknown"},"type":"Feature"},{"geometry":{"coordinates":[7.7483633743,48.5585301439],"type":"Point"},"properties":{"code":"366A","description":null,"id":"LYCOU_01","name":"Lycée Couffignal","wheelchair_boarding":"unknown"},"type":"Feature"},{"geometry":{"coordinates":[7.7028418928,48.6024503318],"type":"Point"},"properties":{"code":"381B","description":null,"id":"MAPAG_02","name":"Marcel Pagnol","wheelchair_boarding":"unknown"},"type":"Feature"},{"geometry":{"coordinates":[7.7137445208,48.5932725366],"type":"Point"},"properties":{"code":"795B","description":null,"id":"BRASS_02","name":"Brasseurs","wheelchair_boarding":"unknown"},"type":"Feature"},{"geometry":{"coordinates":[7.6924024522,48.5513591707],"type":"Point"},"properties":{"code":"681E","description":null,"id":"ALOUT_02","name":"Lingolsheim Alouettes","wheelchair_boarding":"unknown"},"type":"Feature"},{"geometry":{"coordinates":[7.7322681324,48.5916464945],"type":"Point"},"properties":{"code":"718C","description":null,"id":"GAMAR_03","name":"Gare aux Marchandises","wheelchair_boarding":"unknown"},"type":"Feature"},{"geometry":{"coordinates":[7.7343347183,48.6095153177],"type":"Point"},"properties":{"code":"169A","description":null,"id":"ECRIV_01","name":"Ecrivains","wheelchair_boarding":"unknown"},"type":"Feature"},{"geometry":{"coordinates":[7.7663321793,48.554927324],"type":"Point"},"properties":{"code":"316G","description":null,"id":"KIBIT_05","name":"Kibitzenau","wheelchair_boarding":"unknown"},"type":"Feature"},{"geometry":{"coordinates":[7.723141238,48.6072832799],"type":"Point"},"properties":{"code":"612B","description":null,"id":"STJUN_02","name":"Saint-Junien","wheelchair_boarding":"unknown"},"type":"Feature"},{"geometry":{"coordinates":[7.72661918,48.52662524],"type":"Point"},"properties":{"code":"337A","description":null,"id":"LECOR_01","name":"Le Corbusier","wheelchair_boarding":"unknown"},"type":"Feature"},{"geometry":{"coordinates":[7.745186152,48.6143521314],"type":"Point"},"properties":{"code":"52B","description":null,"id":"BIGAR_02","name":"Bischheim Gare","wheelchair_boarding":"unknown"},"type":"Feature"},{"geometry":{"coordinates":[7.7834975203,48.52545027],"type":"Point"},"properties":{"code":"190D","description":null,"id":"EUROF_08","name":"Eurofret","wheelchair_boarding":"unknown"},"type":"Feature"},{"geometry":{"coordinates":[7.6111566647,48.5085052661],"type":"Point"},"properties":{"code":"594B","description":null,"id":"STATI_02","name":"Station de Pompage","wheelchair_boarding":"unknown"},"type":"Feature"},{"geometry":{"coordinates":[7.7039638503,48.6731072969],"type":"Point"},"properties":{"code":"88A","description":null,"id":"CHEAU_01","name":"Château d'Eau","wheelchair_boarding":"unknown"},"type":"Feature"},{"geometry":{"coordinates":[7.7197496039,48.616576343],"type":"Point"},"properties":{"code":"182D","description":null,"id":"ESEUE_04","name":"Espace Européen de l' Entreprise","wheelchair_boarding":"unknown"},"type":"Feature"},{"geometry":{"coordinates":[7.6886101524,48.6131514144],"type":"Point"},"properties":{"code":"538B","description":null,"id":"RODIN_02","name":"Rodin","wheelchair_boarding":"unknown"},"type":"Feature"},{"geometry":{"coordinates":[7.7373147994,48.5251100625],"type":"Point"},"properties":{"code":"735B","description":null,"id":"POAPI_02","name":"Pôle API","wheelchair_boarding":"unknown"},"type":"Feature"},{"geometry":{"coordinates":[7.7516945992,48.614011602],"type":"Point"},"properties":{"code":"87D","description":null,"id":"CHBLA_04","name":"Cheval Blanc","wheelchair_boarding":"unknown"},"type":"Feature"},{"geometry":{"coordinates":[7.6429162716,48.5347665091],"type":"Point"},"properties":{"code":"81A","description":null,"id":"CERIS_01","name":"Cerisiers","wheelchair_boarding":"unknown"},"type":"Feature"},{"geometry":{"coordinates":[7.7802317216,48.5715415101],"type":"Point"},"properties":{"code":"756A","description":null,"id":"CITAD_01","name":"Citadelle","wheelchair_boarding":"unknown"},"type":"Feature"},{"geometry":{"coordinates":[7.7814343492,48.5790912791],"type":"Point"},"properties":{"code":"838B","description":null,"id":"STVAU_02","name":"Stade Vauban","wheelchair_boarding":"unknown"},"type":"Feature"},{"geometry":{"coordinates":[7.6874085636,48.5803111903],"type":"Point"},"properties":{"code":"160B","description":null,"id":"ECCEN_02","name":"Eckbolsheim Centre","wheelchair_boarding":"unknown"},"type":"Feature"},{"geometry":{"coordinates":[7.686755202,48.4958860915],"type":"Point"},"properties":{"code":"560A","description":null,"id":"RUETA_04","name":"Rue de l'Etang","wheelchair_boarding":"unknown"},"type":"Feature"},{"geometry":{"coordinates":[7.7561037588,48.5904208356],"type":"Point"},"properties":{"code":"451A","description":null,"id":"PACON_01","name":"Parc du Contades","wheelchair_boarding":"unknown"},"type":"Feature"},{"geometry":{"coordinates":[7.7154114469,48.4872362645],"type":"Point"},"properties":{"code":"570A","description":null,"id":"SCHAA_01","name":"Schaal","wheelchair_boarding":"unknown"},"type":"Feature"},{"geometry":{"coordinates":[7.746527604,48.6047405582],"type":"Point"},"properties":{"code":"574D","description":null,"id":"SCHMA_04","name":"Schiltigheim Mairie","wheelchair_boarding":"unknown"},"type":"Feature"},{"geometry":{"coordinates":[7.6836064989,48.5220269015],"type":"Point"},"properties":{"code":"646A","description":null,"id":"VERDU_01","name":"Geispolsheim Verdun","wheelchair_boarding":"unknown"},"type":"Feature"},{"geometry":{"coordinates":[7.7560947865,48.6260178102],"type":"Point"},"properties":{"code":"679C","description":null,"id":"EMAIL_03","name":"Emailleries","wheelchair_boarding":"unknown"},"type":"Feature"},{"geometry":{"coordinates":[7.7578915988,48.5527727961],"type":"Point"},"properties":{"code":"529A","description":null,"id":"RHTOR_01","name":"Rhin Tortu","wheelchair_boarding":"unknown"},"type":"Feature"},{"geometry":{"coordinates":[7.7721026233,48.5456215136],"type":"Point"},"properties":{"code":"293A","description":null,"id":"INGOL_01","name":"Ingold","wheelchair_boarding":"unknown"},"type":"Feature"},{"geometry":{"coordinates":[7.7435089667,48.5529419416],"type":"Point"},"properties":{"code":"176E","description":null,"id":"EMMTH_01","name":"Emile Mathis","wheelchair_boarding":"unknown"},"type":"Feature"},{"geometry":{"coordinates":[7.7729448303,48.5881183034],"type":"Point"},"properties":{"code":"644B","description":null,"id":"VERDN_02","name":"Verdun","wheelchair_boarding":"unknown"},"type":"Feature"},{"geometry":{"coordinates":[7.7925559891,48.6019664242],"type":"Point"},"properties":{"code":"327A","description":null,"id":"LAMPR_01","name":"Robertsau Lamproie","wheelchair_boarding":"unknown"},"type":"Feature"},{"geometry":{"coordinates":[7.7367928083,48.5254526747],"type":"Point"},"properties":{"code":"735A","description":null,"id":"POAPI_01","name":"Pôle API","wheelchair_boarding":"unknown"},"type":"Feature"},{"geometry":{"coordinates":[7.6868849055,48.5750592276],"type":"Point"},"properties":{"code":"685A","description":null,"id":"MANEG_01","name":"Manège","wheelchair_boarding":"unknown"},"type":"Feature"},{"geometry":{"coordinates":[7.7581661725,48.5859380109],"type":"Point"},"properties":{"code":"343A","description":null,"id":"LIBER_01","name":"Liberté","wheelchair_boarding":"unknown"},"type":"Feature"},{"geometry":{"coordinates":[7.7279197453,48.5374976902],"type":"Point"},"properties":{"code":"83B","description":null,"id":"CETRA_02","name":"Centre de Traumatologie","wheelchair_boarding":"unknown"},"type":"Feature"},{"geometry":{"coordinates":[7.7646113506,48.6129867451],"type":"Point"},"properties":{"code":"387B","description":null,"id":"MASCH_02","name":"Maires Schaub","wheelchair_boarding":"unknown"},"type":"Feature"},{"geometry":{"coordinates":[7.5901115164,48.5607498774],"type":"Point"},"properties":{"code":"832A","description":null,"id":"ROHAN_01","name":"Route de Hangenbieten","wheelchair_boarding":"unknown"},"type":"Feature"},{"geometry":{"coordinates":[7.7763327947,48.5682220174],"type":"Point"},"properties":{"code":"32C","description":null,"id":"ARBRI_03","name":"Aristide Briand","wheelchair_boarding":"unknown"},"type":"Feature"},{"geometry":{"coordinates":[7.7704423293,48.5884321129],"type":"Point"},"properties":{"code":"626D","description":null,"id":"TAULE_04","name":"Tauler","wheelchair_boarding":"unknown"},"type":"Feature"},{"geometry":{"coordinates":[7.7660756146,48.5871080783],"type":"Point"},"properties":{"code":"248B","description":null,"id":"GOLBE_02","name":"Golbery","wheelchair_boarding":"unknown"},"type":"Feature"},{"geometry":{"coordinates":[7.7128485217,48.5549084541],"type":"Point"},"properties":{"code":"665C","description":null,"id":"WIHRE_01","name":"Wihrel","wheelchair_boarding":"unknown"},"type":"Feature"},{"geometry":{"coordinates":[7.785953544,48.5740950151],"type":"Point"},"properties":{"code":"757A","description":null,"id":"STARC_01","name":"Starcoop","wheelchair_boarding":"unknown"},"type":"Feature"},{"geometry":{"coordinates":[7.7084581553,48.5347694362],"type":"Point"},"properties":{"code":"476A","description":null,"id":"PIGEO_01","name":"Pigeons","wheelchair_boarding":"unknown"},"type":"Feature"},{"geometry":{"coordinates":[7.7057914005,48.6045937003],"type":"Point"},"properties":{"code":"19B","description":null,"id":"ALEUR_02","name":"Allée de l'Euro","wheelchair_boarding":"unknown"},"type":"Feature"},{"geometry":{"coordinates":[7.7111348092,48.529032724],"type":"Point"},"properties":{"code":"291B","description":null,"id":"ILMAI_02","name":"Illkirch Mairie","wheelchair_boarding":"unknown"},"type":"Feature"},{"geometry":{"coordinates":[7.8070862788,48.5759053179],"type":"Point"},"properties":{"code":"313D","description":null,"id":"KEBAH_04","name":"Kehl Bahnhof","wheelchair_boarding":"unknown"},"type":"Feature"},{"geometry":{"coordinates":[7.7144942226,48.5722798595],"type":"Point"},"properties":{"code":"429A","description":null,"id":"NICIG_01","name":"Nid de Cigognes","wheelchair_boarding":"unknown"},"type":"Feature"},{"geometry":{"coordinates":[7.7775400426,48.5982948804],"type":"Point"},"properties":{"code":"535A","description":null,"id":"ROBOE_02","name":"Boecklin","wheelchair_boarding":"unknown"},"type":"Feature"},{"geometry":{"coordinates":[7.7810159325,48.6004376905],"type":"Point"},"properties":{"code":"576C","description":null,"id":"SCHOT_03","name":"Schott","wheelchair_boarding":"unknown"},"type":"Feature"},{"geometry":{"coordinates":[7.7291604887,48.6151624533],"type":"Point"},"properties":{"code":"235A","description":null,"id":"GEBUR_01","name":"Georges Burger","wheelchair_boarding":"unknown"},"type":"Feature"},{"geometry":{"coordinates":[7.7613152268,48.5923243313],"type":"Point"},"properties":{"code":"51A","description":null,"id":"BETHS_01","name":"Bethesda","wheelchair_boarding":"unknown"},"type":"Feature"},{"geometry":{"coordinates":[7.7460183303,48.6338759561],"type":"Point"},"properties":{"code":"145B","description":null,"id":"DAUPH_02","name":"Dauphiné","wheelchair_boarding":"unknown"},"type":"Feature"},{"geometry":{"coordinates":[7.7488417714,48.5745196649],"type":"Point"},"properties":{"code":"284A","description":null,"id":"HOPOL_01","name":"Hôtel de Police","wheelchair_boarding":"unknown"},"type":"Feature"},{"geometry":{"coordinates":[7.7551027694,48.625262943],"type":"Point"},"properties":{"code":"679A","description":null,"id":"EMAIL_02","name":"Emailleries","wheelchair_boarding":"unknown"},"type":"Feature"},{"geometry":{"coordinates":[7.740020768,48.5833112632],"type":"Point"},"properties":{"code":"24B","description":null,"id":"ALWIN_02","name":"Alt Winmärik-Vieux Marché aux Vins","wheelchair_boarding":"unknown"},"type":"Feature"},{"geometry":{"coordinates":[7.7579295239,48.5799612712],"type":"Point"},"properties":{"code":"320A","description":null,"id":"KRUTE_01","name":"Krutenau","wheelchair_boarding":"unknown"},"type":"Feature"},{"geometry":{"coordinates":[7.748907009,48.5528224726],"type":"Point"},"properties":{"code":"149A","description":null,"id":"DIETT_01","name":"Dietterlin","wheelchair_boarding":"unknown"},"type":"Feature"},{"geometry":{"coordinates":[7.747683166,48.60785021],"type":"Point"},"properties":{"code":"171B","description":null,"id":"FRIKA_02","name":"Frida Kahlo","wheelchair_boarding":"unknown"},"type":"Feature"},{"geometry":{"coordinates":[7.7611721882,48.5982998497],"type":"Point"},"properties":{"code":"657C","description":null,"id":"WACKE_01","name":"Wacken","wheelchair_boarding":"unknown"},"type":"Feature"},{"geometry":{"coordinates":[7.6886292423,48.5894766821],"type":"Point"},"properties":{"code":"71B","description":null,"id":"BUGAT_02","name":"Bugatti","wheelchair_boarding":"unknown"},"type":"Feature"},{"geometry":{"coordinates":[7.7805356239,48.6004478868],"type":"Point"},"properties":{"code":"576B","description":null,"id":"SCHOT_02","name":"Schott","wheelchair_boarding":"unknown"},"type":"Feature"},{"geometry":{"coordinates":[7.7671478773,48.612982625],"type":"Point"},"properties":{"code":"496B","description":null,"id":"POPHA_03","name":"Pont Phario","wheelchair_boarding":"unknown"},"type":"Feature"},{"geometry":{"coordinates":[7.7202836709,48.566118773],"type":"Point"},"properties":{"code":"412C","description":null,"id":"MSCHO_03","name":"Martin Schongauer","wheelchair_boarding":"unknown"},"type":"Feature"},{"geometry":{"coordinates":[7.6869315133,48.6118638754],"type":"Point"},"properties":{"code":"50B","description":null,"id":"BETHL_02","name":"Bethel","wheelchair_boarding":"unknown"},"type":"Feature"},{"geometry":{"coordinates":[7.7535331045,48.6164501514],"type":"Point"},"properties":{"code":"467A","description":null,"id":"PAWOD_01","name":"Parc Wodli","wheelchair_boarding":"unknown"},"type":"Feature"},{"geometry":{"coordinates":[7.7779064455,48.6049328667],"type":"Point"},"properties":{"code":"217A","description":null,"id":"FOLOU_01","name":"Fort Louis","wheelchair_boarding":"unknown"},"type":"Feature"},{"geometry":{"coordinates":[7.7510855853,48.5897423702],"type":"Point"},"properties":{"code":"655B","description":null,"id":"VOOBE_02","name":"Vosges Oberlin","wheelchair_boarding":"unknown"},"type":"Feature"},{"geometry":{"coordinates":[7.6176107529,48.5552383784],"type":"Point"},"properties":{"code":"828B","description":null,"id":"COLVE_02","name":"Colverts","wheelchair_boarding":"unknown"},"type":"Feature"},{"geometry":{"coordinates":[7.7514572794,48.5516549684],"type":"Point"},"properties":{"code":"223B","description":null,"id":"FRCOM_02","name":"Franche Comté","wheelchair_boarding":"unknown"},"type":"Feature"},{"geometry":{"coordinates":[7.6394904435,48.535013899],"type":"Point"},"properties":{"code":"462A","description":null,"id":"ENPAR_01","name":"Entzheim Parc","wheelchair_boarding":"unknown"},"type":"Feature"},{"geometry":{"coordinates":[7.7658507227,48.5493918962],"type":"Point"},"properties":{"code":"789B","description":null,"id":"CLAIR_02","name":"Clairvivre","wheelchair_boarding":"unknown"},"type":"Feature"},{"geometry":{"coordinates":[7.7065796032,48.5331813862],"type":"Point"},"properties":{"code":"704B","description":null,"id":"23NOV_02","name":"23 Novembre","wheelchair_boarding":"unknown"},"type":"Feature"},{"geometry":{"coordinates":[7.7441116441,48.5530663016],"type":"Point"},"properties":{"code":"176C","description":null,"id":"EMMAT_03","name":"Emile Mathis","wheelchair_boarding":"unknown"},"type":"Feature"},{"geometry":{"coordinates":[7.6830889216,48.536120614],"type":"Point"},"properties":{"code":"822A","description":null,"id":"FORLE_01","name":"Forlen","wheelchair_boarding":"unknown"},"type":"Feature"},{"geometry":{"coordinates":[7.6460370252,48.5388757867],"type":"Point"},"properties":{"code":"708A","description":null,"id":"TECHA_01","name":"Terres de la Chapelle","wheelchair_boarding":"unknown"},"type":"Feature"},{"geometry":{"coordinates":[7.7637653053,48.5828302637],"type":"Point"},"properties":{"code":"638B","description":null,"id":"UNIVE_02","name":"Université","wheelchair_boarding":"unknown"},"type":"Feature"},{"geometry":{"coordinates":[7.753507938,48.55489689],"type":"Point"},"properties":{"code":"473B","description":null,"id":"PFIST_02","name":"Pfister","wheelchair_boarding":"unknown"},"type":"Feature"},{"geometry":{"coordinates":[7.6816389507,48.5830411642],"type":"Point"},"properties":{"code":"299A","description":null,"id":"JAVIG_01","name":"Jardin des Vignes","wheelchair_boarding":"unknown"},"type":"Feature"},{"geometry":{"coordinates":[7.697262456,48.5619186896],"type":"Point"},"properties":{"code":"624B","description":null,"id":"TANNE_04","name":"Tanneries","wheelchair_boarding":"unknown"},"type":"Feature"},{"geometry":{"coordinates":[7.7931053191,48.5745973597],"type":"Point"},"properties":{"code":"129B","description":null,"id":"COOPE_02","name":"Coopérative","wheelchair_boarding":"unknown"},"type":"Feature"},{"geometry":{"coordinates":[7.692940057,48.5511932819],"type":"Point"},"properties":{"code":"681D","description":null,"id":"ALOUT_01","name":"Lingolsheim Alouettes","wheelchair_boarding":"unknown"},"type":"Feature"},{"geometry":{"coordinates":[7.687112908,48.5753490285],"type":"Point"},"properties":{"code":"685B","description":null,"id":"MANEG_02","name":"Manège","wheelchair_boarding":"unknown"},"type":"Feature"},{"geometry":{"coordinates":[7.7538292302,48.575257072],"type":"Point"},"properties":{"code":"186A","description":null,"id":"ETBOU_04","name":"Etoile Bourse","wheelchair_boarding":"unknown"},"type":"Feature"},{"geometry":{"coordinates":[7.7760950769,48.5803421858],"type":"Point"},"properties":{"code":"706A","description":null,"id":"PLISL_01","name":"Place d'Islande","wheelchair_boarding":"unknown"},"type":"Feature"},{"geometry":{"coordinates":[7.7094551506,48.5269596927],"type":"Point"},"properties":{"code":"742C","description":null,"id":"COILL_03","name":"Cours de l'Illiade","wheelchair_boarding":"unknown"},"type":"Feature"},{"geometry":{"coordinates":[7.7106294631,48.6016130325],"type":"Point"},"properties":{"code":"91A","description":null,"id":"CHMAN_01","name":"Champ de Manoeuvre","wheelchair_boarding":"unknown"},"type":"Feature"},{"geometry":{"coordinates":[7.7731315631,48.5664201333],"type":"Point"},"properties":{"code":"298D","description":null,"id":"JEJAU_02","name":"Jean Jaures","wheelchair_boarding":"unknown"},"type":"Feature"},{"geometry":{"coordinates":[7.6841503709,48.4935369693],"type":"Point"},"properties":{"code":"148B","description":null,"id":"DELAT_02","name":"De Lattre de Tassigny","wheelchair_boarding":"unknown"},"type":"Feature"},{"geometry":{"coordinates":[7.7859762139,48.6103972296],"type":"Point"},"properties":{"code":"121A","description":null,"id":"COEHO_01","name":"Coehorn","wheelchair_boarding":"unknown"},"type":"Feature"},{"geometry":{"coordinates":[7.7092200993,48.5468194359],"type":"Point"},"properties":{"code":"647F","description":null,"id":"VERMA_06","name":"Vernois Mangold","wheelchair_boarding":"unknown"},"type":"Feature"},{"geometry":{"coordinates":[7.7802605001,48.5314166646],"type":"Point"},"properties":{"code":"615A","description":null,"id":"STNAZ_01","name":"Saint Nazaire","wheelchair_boarding":"unknown"},"type":"Feature"},{"geometry":{"coordinates":[7.7418858111,48.6333968589],"type":"Point"},"properties":{"code":"586B","description":null,"id":"SOECO_02","name":"Souffelweyersheim Ecole","wheelchair_boarding":"unknown"},"type":"Feature"},{"geometry":{"coordinates":[7.761466278,48.5858402275],"type":"Point"},"properties":{"code":"69C","description":null,"id":"BRUNI_01","name":"Brant Université","wheelchair_boarding":"unknown"},"type":"Feature"},{"geometry":{"coordinates":[7.7743100747,48.5879371135],"type":"Point"},"properties":{"code":"644A","description":null,"id":"VERDN_01","name":"Verdun","wheelchair_boarding":"unknown"},"type":"Feature"},{"geometry":{"coordinates":[7.6978392188,48.6009934929],"type":"Point"},"properties":{"code":"42A","description":null,"id":"BANLI_01","name":"Banlieue","wheelchair_boarding":"unknown"},"type":"Feature"},{"geometry":{"coordinates":[7.7102869291,48.6688893962],"type":"Point"},"properties":{"code":"648B","description":null,"id":"VETIL_02","name":"Vendenheim au Tilleul","wheelchair_boarding":"unknown"},"type":"Feature"},{"geometry":{"coordinates":[7.7731859137,48.5441961542],"type":"Point"},"properties":{"code":"318A","description":null,"id":"KLEBS_01","name":"Klebsau","wheelchair_boarding":"unknown"},"type":"Feature"},{"geometry":{"coordinates":[7.7872959896,48.6035445595],"type":"Point"},"properties":{"code":"598A","description":null,"id":"STFRA_01","name":"Saint-François","wheelchair_boarding":"unknown"},"type":"Feature"},{"geometry":{"coordinates":[7.7309450288,48.5797679712],"type":"Point"},"properties":{"code":"798C","description":null,"id":"PTBLA_03","name":"Porte Blanche","wheelchair_boarding":"unknown"},"type":"Feature"},{"geometry":{"coordinates":[7.7056843376,48.5968987494],"type":"Point"},"properties":{"code":"80A","description":null,"id":"CATHE_01","name":"Catherine","wheelchair_boarding":"unknown"},"type":"Feature"},{"geometry":{"coordinates":[7.7930242662,48.6192574788],"type":"Point"},"properties":{"code":"46A","description":null,"id":"BELZW_01","name":"Belzwoerth","wheelchair_boarding":"unknown"},"type":"Feature"},{"geometry":{"coordinates":[7.7156893908,48.5318590463],"type":"Point"},"properties":{"code":"687B","description":null,"id":"PAKLI_02","name":"Parc Klinglin","wheelchair_boarding":"unknown"},"type":"Feature"},{"geometry":{"coordinates":[7.6973219328,48.5873282364],"type":"Point"},"properties":{"code":"732B","description":null,"id":"MARUD_02","name":"Marcel Rudloff","wheelchair_boarding":"unknown"},"type":"Feature"},{"geometry":{"coordinates":[7.7766565001,48.5808738587],"type":"Point"},"properties":{"code":"706C","description":null,"id":"PLISL_03","name":"Place d'Islande","wheelchair_boarding":"unknown"},"type":"Feature"},{"geometry":{"coordinates":[7.692858838,48.5515973104],"type":"Point"},"properties":{"code":"681A","description":null,"id":"ALOUT_03","name":"Lingolsheim Alouettes","wheelchair_boarding":"unknown"},"type":"Feature"},{"geometry":{"coordinates":[7.788032256,48.6187830315],"type":"Point"},"properties":{"code":"213A","description":null,"id":"FISCH_01","name":"Fischacker","wheelchair_boarding":"unknown"},"type":"Feature"},{"geometry":{"coordinates":[7.7387685992,48.5644781053],"type":"Point"},"properties":{"code":"199B","description":null,"id":"FEDER_02","name":"Fédération","wheelchair_boarding":"unknown"},"type":"Feature"},{"geometry":{"coordinates":[7.7397340536,48.562137652],"type":"Point"},"properties":{"code":"477A","description":null,"id":"PLBOU_01","name":"Plaine des Bouchers","wheelchair_boarding":"unknown"},"type":"Feature"},{"geometry":{"coordinates":[7.7806378227,48.5314327572],"type":"Point"},"properties":{"code":"615B","description":null,"id":"STNAZ_02","name":"Saint Nazaire","wheelchair_boarding":"unknown"},"type":"Feature"},{"geometry":{"coordinates":[7.7080735936,48.5248450274],"type":"Point"},"properties":{"code":"745C","description":null,"id":"ILGRA_01","name":"Graffenstaden","wheelchair_boarding":"unknown"},"type":"Feature"},{"geometry":{"coordinates":[7.7418522129,48.5488846967],"type":"Point"},"properties":{"code":"280G","description":null,"id":"HOHWA_07","name":"Hohwart","wheelchair_boarding":"unknown"},"type":"Feature"},{"geometry":{"coordinates":[7.7404221959,48.583442421],"type":"Point"},"properties":{"code":"24A","description":null,"id":"ALWIN_01","name":"Alt Winmärik-Vieux Marché aux Vins","wheelchair_boarding":"unknown"},"type":"Feature"},{"geometry":{"coordinates":[7.694621779,48.5562906702],"type":"Point"},"properties":{"code":"801B","description":null,"id":"PATAN_02","name":"Parc des Tanneries","wheelchair_boarding":"unknown"},"type":"Feature"},{"geometry":{"coordinates":[7.7576961368,48.5828466768],"type":"Point"},"properties":{"code":"600B","description":null,"id":"STGUI_02","name":"Saint-Guillaume","wheelchair_boarding":"unknown"},"type":"Feature"},{"geometry":{"coordinates":[7.7394612542,48.5879383446],"type":"Point"},"properties":{"code":"667G","description":null,"id":"WILSO_08","name":"Wilson Les Halles","wheelchair_boarding":"unknown"},"type":"Feature"},{"geometry":{"coordinates":[7.8281827994,48.6578855613],"type":"Point"},"properties":{"code":"362A","description":null,"id":"LWAMA_01","name":"La Wantzenau Mairie","wheelchair_boarding":"unknown"},"type":"Feature"},{"geometry":{"coordinates":[7.7753797936,48.5159930931],"type":"Point"},"properties":{"code":"738A","description":null,"id":"POAUT_01","name":"Port Autonome Sud","wheelchair_boarding":"unknown"},"type":"Feature"},{"geometry":{"coordinates":[7.7585625085,48.5842389821],"type":"Point"},"properties":{"code":"233A","description":null,"id":"GALLI_03","name":"Gallia","wheelchair_boarding":"unknown"},"type":"Feature"},{"geometry":{"coordinates":[7.7835447503,48.5780027876],"type":"Point"},"properties":{"code":"158B","description":null,"id":"DUNKE_02","name":"Dunkerque","wheelchair_boarding":"unknown"},"type":"Feature"},{"geometry":{"coordinates":[7.7666077762,48.5462923514],"type":"Point"},"properties":{"code":"546D","description":null,"id":"ROREU_02","name":"Neuhof Rodolphe Reuss","wheelchair_boarding":"unknown"},"type":"Feature"},{"geometry":{"coordinates":[7.6282657196,48.5470689518],"type":"Point"},"properties":{"code":"705A","description":null,"id":"ENGAR_01","name":"Entzheim Gare","wheelchair_boarding":"unknown"},"type":"Feature"},{"geometry":{"coordinates":[7.8085139393,48.6405507168],"type":"Point"},"properties":{"code":"282B","description":null,"id":"HONAU_02","name":"Honau","wheelchair_boarding":"unknown"},"type":"Feature"},{"geometry":{"coordinates":[7.7254730889,48.4886664809],"type":"Point"},"properties":{"code":"521B","description":null,"id":"PULVE_02","name":"Pulverlaechel","wheelchair_boarding":"unknown"},"type":"Feature"},{"geometry":{"coordinates":[7.6981618206,48.6782203735],"type":"Point"},"properties":{"code":"76A","description":null,"id":"CANAL_01","name":"Canal","wheelchair_boarding":"unknown"},"type":"Feature"},{"geometry":{"coordinates":[7.7365725184,48.6344788585],"type":"Point"},"properties":{"code":"585B","description":null,"id":"SOCEN_02","name":"Souffelweyersheim Centre","wheelchair_boarding":"unknown"},"type":"Feature"},{"geometry":{"coordinates":[7.703392997,48.58216785],"type":"Point"},"properties":{"code":"278D","description":null,"id":"HOHBE_04","name":"Hohberg","wheelchair_boarding":"unknown"},"type":"Feature"},{"geometry":{"coordinates":[7.7129193713,48.5545875633],"type":"Point"},"properties":{"code":"665B","description":null,"id":"WIHRE_04","name":"Wihrel","wheelchair_boarding":"unknown"},"type":"Feature"},{"geometry":{"coordinates":[7.7308287248,48.5755270899],"type":"Point"},"properties":{"code":"323A","description":null,"id":"LAITE_01","name":"Laiterie","wheelchair_boarding":"unknown"},"type":"Feature"},{"geometry":{"coordinates":[7.7503250911,48.5781498994],"type":"Point"},"properties":{"code":"520G","description":null,"id":"PTHOP_09","name":"Porte de l'Hôpital","wheelchair_boarding":"unknown"},"type":"Feature"},{"geometry":{"coordinates":[7.7141138284,48.5983415804],"type":"Point"},"properties":{"code":"622C","description":null,"id":"STUTZ_03","name":"Stutzheim","wheelchair_boarding":"unknown"},"type":"Feature"},{"geometry":{"coordinates":[7.680314315,48.5514284551],"type":"Point"},"properties":{"code":"110B","description":null,"id":"CIMET_02","name":"Lingolsheim Cimetière","wheelchair_boarding":"unknown"},"type":"Feature"},{"geometry":{"coordinates":[7.6838616094,48.5187583018],"type":"Point"},"properties":{"code":"237B","description":null,"id":"GEGAR_02","name":"Geispolsheim Gare","wheelchair_boarding":"unknown"},"type":"Feature"},{"geometry":{"coordinates":[7.7165673424,48.6134620658],"type":"Point"},"properties":{"code":"722A","description":null,"id":"VIENN_01","name":"Vienne","wheelchair_boarding":"unknown"},"type":"Feature"},{"geometry":{"coordinates":[7.7436450543,48.5605319905],"type":"Point"},"properties":{"code":"336B","description":null,"id":"LEFEB_02","name":"Lefèbvre","wheelchair_boarding":"unknown"},"type":"Feature"},{"geometry":{"coordinates":[7.8215330568,48.6441451373],"type":"Point"},"properties":{"code":"558A","description":null,"id":"RUCHA_01","name":"Rue des Champs","wheelchair_boarding":"unknown"},"type":"Feature"},{"geometry":{"coordinates":[7.7720035257,48.5856348856],"type":"Point"},"properties":{"code":"614B","description":null,"id":"STMAU_02","name":"Saint-Maurice","wheelchair_boarding":"unknown"},"type":"Feature"},{"geometry":{"coordinates":[7.7023270449,48.5182811456],"type":"Point"},"properties":{"code":"495A","description":null,"id":"POPEA_01","name":"Pont du Péage","wheelchair_boarding":"unknown"},"type":"Feature"},{"geometry":{"coordinates":[7.7127147205,48.5555534357],"type":"Point"},"properties":{"code":"665A","description":null,"id":"WIHRE_03","name":"Wihrel","wheelchair_boarding":"unknown"},"type":"Feature"},{"geometry":{"coordinates":[7.7816279086,48.5806479754],"type":"Point"},"properties":{"code":"839A","description":null,"id":"ROTTE_01","name":"Rotterdam","wheelchair_boarding":"unknown"},"type":"Feature"},{"geometry":{"coordinates":[7.7298239618,48.5100270663],"type":"Point"},"properties":{"code":"658A","description":null,"id":"WALDH_01","name":"Waldhorn","wheelchair_boarding":"unknown"},"type":"Feature"},{"geometry":{"coordinates":[7.7667985478,48.5895082556],"type":"Point"},"properties":{"code":"154B","description":null,"id":"DORDO_04","name":"Dordogne","wheelchair_boarding":"unknown"},"type":"Feature"},{"geometry":{"coordinates":[7.764237039,48.56916081],"type":"Point"},"properties":{"code":"329H","description":null,"id":"LANDB_01","name":"Landsberg","wheelchair_boarding":"unknown"},"type":"Feature"},{"geometry":{"coordinates":[7.7489703184,48.5846390055],"type":"Point"},"properties":{"code":"67B","description":null,"id":"BROGL_02","name":"Broglie","wheelchair_boarding":"unknown"},"type":"Feature"},{"geometry":{"coordinates":[7.757798396,48.594250266],"type":"Point"},"properties":{"code":"368C","description":null,"id":"LYKLE_05","name":"Lycée Kléber","wheelchair_boarding":"unknown"},"type":"Feature"},{"geometry":{"coordinates":[7.7588551051,48.628280414],"type":"Point"},"properties":{"code":"274A","description":null,"id":"HOEGA_02","name":"Hoenheim Gare","wheelchair_boarding":"unknown"},"type":"Feature"},{"geometry":{"coordinates":[7.7665699047,48.5735787198],"type":"Point"},"properties":{"code":"664A","description":null,"id":"WICHU_01","name":"Winston Churchill","wheelchair_boarding":"unknown"},"type":"Feature"},{"geometry":{"coordinates":[7.7212767675,48.5263699451],"type":"Point"},"properties":{"code":"743D","description":null,"id":"PAMAL_08","name":"Parc Malraux","wheelchair_boarding":"unknown"},"type":"Feature"},{"geometry":{"coordinates":[7.7754114204,48.5960288834],"type":"Point"},"properties":{"code":"156A","description":null,"id":"DRHOM_05","name":"Droits de l'Homme","wheelchair_boarding":"unknown"},"type":"Feature"},{"geometry":{"coordinates":[7.7816026657,48.6117002622],"type":"Point"},"properties":{"code":"459C","description":null,"id":"PAPET_03","name":"Papeterie","wheelchair_boarding":"unknown"},"type":"Feature"},{"geometry":{"coordinates":[7.7928985187,48.5747251357],"type":"Point"},"properties":{"code":"129A","description":null,"id":"COOPE_01","name":"Coopérative","wheelchair_boarding":"unknown"},"type":"Feature"},{"geometry":{"coordinates":[7.7120415948,48.610355446],"type":"Point"},"properties":{"code":"721E","description":null,"id":"LONDR_05","name":"Londres","wheelchair_boarding":"unknown"},"type":"Feature"},{"geometry":{"coordinates":[7.7200013771,48.5659249203],"type":"Point"},"properties":{"code":"412B","description":null,"id":"MSCHO_02","name":"Martin Schongauer","wheelchair_boarding":"unknown"},"type":"Feature"},{"geometry":{"coordinates":[7.7287325624,48.469339161],"type":"Point"},"properties":{"code":"619A","description":null,"id":"STPAU_01","name":"Saint Paul","wheelchair_boarding":"unknown"},"type":"Feature"},{"geometry":{"coordinates":[7.7190158414,48.6029396164],"type":"Point"},"properties":{"code":"719A","description":null,"id":"LAVOI_01","name":"Lavoisier","wheelchair_boarding":"unknown"},"type":"Feature"},{"geometry":{"coordinates":[7.7359395907,48.5191661423],"type":"Point"},"properties":{"code":"736A","description":null,"id":"ILPAI_01","name":"Illkirch Parc d'Innovation","wheelchair_boarding":"unknown"},"type":"Feature"},{"geometry":{"coordinates":[7.7029905667,48.5499224652],"type":"Point"},"properties":{"code":"58A","description":null,"id":"BORIE_01","name":"Bohrie","wheelchair_boarding":"unknown"},"type":"Feature"},{"geometry":{"coordinates":[7.7852484,48.5702568],"type":"Point"},"properties":{"code":"757D","description":null,"id":"STARC_04","name":"Starcoop","wheelchair_boarding":"unknown"},"type":"Feature"},{"geometry":{"coordinates":[7.7851012721,48.6090853667],"type":"Point"},"properties":{"code":"788A","description":null,"id":"ROESC_01","name":"Robertsau L'Escale","wheelchair_boarding":"unknown"},"type":"Feature"},{"geometry":{"coordinates":[7.6175629198,48.5554988975],"type":"Point"},"properties":{"code":"828A","description":null,"id":"COLVE_01","name":"Colverts","wheelchair_boarding":"unknown"},"type":"Feature"},{"geometry":{"coordinates":[7.716209139,48.57969659],"type":"Point"},"properties":{"code":"800B","description":null,"id":"COMTE_07","name":"Comtes","wheelchair_boarding":"unknown"},"type":"Feature"},{"geometry":{"coordinates":[7.7039275733,48.6724788734],"type":"Point"},"properties":{"code":"88B","description":null,"id":"CHEAU_02","name":"Château d'Eau","wheelchair_boarding":"unknown"},"type":"Feature"},{"geometry":{"coordinates":[7.6998521879,48.6246758635],"type":"Point"},"properties":{"code":"432B","description":null,"id":"NICEN_02","name":"Niederhausbergen Centre","wheelchair_boarding":"unknown"},"type":"Feature"},{"geometry":{"coordinates":[7.6871753716,48.5793047528],"type":"Point"},"properties":{"code":"686A","description":null,"id":"ECKMA_01","name":"Eckbolsheim Mairie","wheelchair_boarding":"unknown"},"type":"Feature"},{"geometry":{"coordinates":[7.7385941207,48.5641035434],"type":"Point"},"properties":{"code":"199A","description":null,"id":"FEDER_01","name":"Fédération","wheelchair_boarding":"unknown"},"type":"Feature"},{"geometry":{"coordinates":[7.694038988,48.6827665533],"type":"Point"},"properties":{"code":"163A","description":null,"id":"ECCIM_01","name":"Eckwersheim Cimetière","wheelchair_boarding":"unknown"},"type":"Feature"},{"geometry":{"coordinates":[7.7518269418,48.6135038475],"type":"Point"},"properties":{"code":"87A","description":null,"id":"CHBLA_01","name":"Cheval Blanc","wheelchair_boarding":"unknown"},"type":"Feature"},{"geometry":{"coordinates":[7.7588566522,48.6277622346],"type":"Point"},"properties":{"code":"274H","description":null,"id":"HOEGA_06","name":"Hoenheim Gare","wheelchair_boarding":"unknown"},"type":"Feature"},{"geometry":{"coordinates":[7.7221893891,48.5160839942],"type":"Point"},"properties":{"code":"445B","description":null,"id":"ORMES_02","name":"Orme","wheelchair_boarding":"unknown"},"type":"Feature"},{"geometry":{"coordinates":[7.7531663441,48.5750741862],"type":"Point"},"properties":{"code":"186B","description":null,"id":"ETBOU_07","name":"Etoile Bourse","wheelchair_boarding":"unknown"},"type":"Feature"},{"geometry":{"coordinates":[7.7544476464,48.6001576572],"type":"Point"},"properties":{"code":"530D","description":null,"id":"RIAAR_02","name":"Rives de l'Aar","wheelchair_boarding":"unknown"},"type":"Feature"},{"geometry":{"coordinates":[7.7882986925,48.6128624995],"type":"Point"},"properties":{"code":"240B","description":null,"id":"GELEJ_02","name":"Général Lejeune","wheelchair_boarding":"unknown"},"type":"Feature"},{"geometry":{"coordinates":[7.6797949056,48.4904565342],"type":"Point"},"properties":{"code":"210B","description":null,"id":"FEMAI_04","name":"Fegersheim Mairie","wheelchair_boarding":"unknown"},"type":"Feature"},{"geometry":{"coordinates":[7.6920882984,48.5600762683],"type":"Point"},"properties":{"code":"513A","description":null,"id":"PRESS_01","name":"Prés","wheelchair_boarding":"unknown"},"type":"Feature"},{"geometry":{"coordinates":[7.7139077525,48.6348653168],"type":"Point"},"properties":{"code":"780A","description":null,"id":"MUPAR_01","name":"Mundolsheim Parc","wheelchair_boarding":"unknown"},"type":"Feature"},{"geometry":{"coordinates":[7.6950663747,48.5562960606],"type":"Point"},"properties":{"code":"801A","description":null,"id":"PATAN_01","name":"Parc des Tanneries","wheelchair_boarding":"unknown"},"type":"Feature"},{"geometry":{"coordinates":[7.7695592733,48.5921588144],"type":"Point"},"properties":{"code":"443B","description":null,"id":"ORANG_02","name":"Orangerie","wheelchair_boarding":"unknown"},"type":"Feature"},{"geometry":{"coordinates":[7.7517283371,48.6513611202],"type":"Point"},"properties":{"code":"779B","description":null,"id":"REVER_02","name":"Reichstett Vergers","wheelchair_boarding":"unknown"},"type":"Feature"},{"geometry":{"coordinates":[7.6796673238,48.5178051639],"type":"Point"},"properties":{"code":"651B","description":null,"id":"VIMOU_02","name":"Vieux Moulin","wheelchair_boarding":"unknown"},"type":"Feature"},{"geometry":{"coordinates":[7.7721122917,48.5857618125],"type":"Point"},"properties":{"code":"614A","description":null,"id":"STMAU_01","name":"Saint-Maurice","wheelchair_boarding":"unknown"},"type":"Feature"},{"geometry":{"coordinates":[7.6931759808,48.5921170642],"type":"Point"},"properties":{"code":"723A","description":null,"id":"EDROS_01","name":"Edmond Rostand","wheelchair_boarding":"unknown"},"type":"Feature"},{"geometry":{"coordinates":[7.755026333,48.5719725569],"type":"Point"},"properties":{"code":"189D","description":null,"id":"ETPOL_04","name":"Etoile Polygone","wheelchair_boarding":"unknown"},"type":"Feature"},{"geometry":{"coordinates":[7.7882818632,48.6129705052],"type":"Point"},"properties":{"code":"240A","description":null,"id":"GELEJ_01","name":"Général Lejeune","wheelchair_boarding":"unknown"},"type":"Feature"},{"geometry":{"coordinates":[7.7312047951,48.580196529],"type":"Point"},"properties":{"code":"798B","description":null,"id":"PTBLA_02","name":"Porte Blanche","wheelchair_boarding":"unknown"},"type":"Feature"},{"geometry":{"coordinates":[7.7645763643,48.5614857374],"type":"Point"},"properties":{"code":"420B","description":null,"id":"GRAVI_02","name":"Gravière Stade de la Meinau","wheelchair_boarding":"unknown"},"type":"Feature"},{"geometry":{"coordinates":[7.7686451573,48.6129277876],"type":"Point"},"properties":{"code":"496D","description":null,"id":"POPHA_01","name":"Pont Phario","wheelchair_boarding":"unknown"},"type":"Feature"},{"geometry":{"coordinates":[7.7878134069,48.5765024439],"type":"Point"},"properties":{"code":"751A","description":null,"id":"CAPIE_01","name":"Capitainerie","wheelchair_boarding":"unknown"},"type":"Feature"},{"geometry":{"coordinates":[7.7734844192,48.5668245819],"type":"Point"},"properties":{"code":"298C","description":null,"id":"JEJAU_01","name":"Jean Jaures","wheelchair_boarding":"unknown"},"type":"Feature"},{"geometry":{"coordinates":[7.7778743259,48.5980307877],"type":"Point"},"properties":{"code":"535H","description":null,"id":"BOECK_01","name":"Boecklin","wheelchair_boarding":"unknown"},"type":"Feature"},{"geometry":{"coordinates":[7.749604918,48.6009108391],"type":"Point"},"properties":{"code":"118A","description":null,"id":"CMCOO_01","name":"CMCO","wheelchair_boarding":"unknown"},"type":"Feature"},{"geometry":{"coordinates":[7.6506447985,48.516941552],"type":"Point"},"properties":{"code":"122A","description":null,"id":"COFON_01","name":"Collège La Fontaine","wheelchair_boarding":"unknown"},"type":"Feature"},{"geometry":{"coordinates":[7.7376030385,48.6109663051],"type":"Point"},"properties":{"code":"325B","description":null,"id":"LAMAR_02","name":"Lamartine","wheelchair_boarding":"unknown"},"type":"Feature"},{"geometry":{"coordinates":[7.7445800696,48.5840952156],"type":"Point"},"properties":{"code":"275B","description":null,"id":"HOFER_14","name":"Homme de Fer","wheelchair_boarding":"unknown"},"type":"Feature"},{"geometry":{"coordinates":[7.6698855386,48.4912341262],"type":"Point"},"properties":{"code":"345B","description":null,"id":"LIEST_02","name":"Lipsheim Est","wheelchair_boarding":"unknown"},"type":"Feature"},{"geometry":{"coordinates":[7.6883185245,48.5629919585],"type":"Point"},"properties":{"code":"632B","description":null,"id":"TOURA_02","name":"Touraine","wheelchair_boarding":"unknown"},"type":"Feature"},{"geometry":{"coordinates":[7.7537686287,48.5864425675],"type":"Point"},"properties":{"code":"527C","description":null,"id":"REPUB_05","name":"République","wheelchair_boarding":"unknown"},"type":"Feature"},{"geometry":{"coordinates":[7.7445736347,48.6145197509],"type":"Point"},"properties":{"code":"52A","description":null,"id":"BIGAR_01","name":"Bischheim Gare","wheelchair_boarding":"unknown"},"type":"Feature"},{"geometry":{"coordinates":[7.8088562442,48.6659816784],"type":"Point"},"properties":{"code":"762B","description":null,"id":"GUTEN_03","name":"Gutenberg","wheelchair_boarding":"unknown"},"type":"Feature"},{"geometry":{"coordinates":[7.7330456597,48.5984956182],"type":"Point"},"properties":{"code":"842A","description":null,"id":"PLABA_01","name":"Place de l'Abattoir","wheelchair_boarding":"unknown"},"type":"Feature"},{"geometry":{"coordinates":[7.7653171884,48.5879424361],"type":"Point"},"properties":{"code":"116A","description":null,"id":"CLORA_01","name":"Clinique de l'Orangerie","wheelchair_boarding":"unknown"},"type":"Feature"},{"geometry":{"coordinates":[7.7359663341,48.6070767613],"type":"Point"},"properties":{"code":"634B","description":null,"id":"TREPI_02","name":"Trois Epis","wheelchair_boarding":"unknown"},"type":"Feature"},{"geometry":{"coordinates":[7.6896468177,48.559357538],"type":"Point"},"properties":{"code":"112B","description":null,"id":"CIRUS_02","name":"Cité Russi","wheelchair_boarding":"unknown"},"type":"Feature"},{"geometry":{"coordinates":[7.7692571282,48.5643542667],"type":"Point"},"properties":{"code":"367A","description":null,"id":"LYJMO_01","name":"Lycée Jean Monnet","wheelchair_boarding":"unknown"},"type":"Feature"},{"geometry":{"coordinates":[7.7489991273,48.5587097541],"type":"Point"},"properties":{"code":"366C","description":null,"id":"LYCOU_03","name":"Lycée Couffignal","wheelchair_boarding":"unknown"},"type":"Feature"},{"geometry":{"coordinates":[7.7759636775,48.5871755323],"type":"Point"},"properties":{"code":"701B","description":null,"id":"WAGNE_02","name":"Wagner","wheelchair_boarding":"unknown"},"type":"Feature"},{"geometry":{"coordinates":[7.7615196471,48.5635974116],"type":"Point"},"properties":{"code":"334B","description":null,"id":"LAZAR_02","name":"Lazaret","wheelchair_boarding":"unknown"},"type":"Feature"},{"geometry":{"coordinates":[7.7668806127,48.546113041],"type":"Point"},"properties":{"code":"546C","description":null,"id":"ROREU_01","name":"Neuhof Rodolphe Reuss","wheelchair_boarding":"unknown"},"type":"Feature"},{"geometry":{"coordinates":[7.7480978006,48.5479720725],"type":"Point"},"properties":{"code":"63A","description":null,"id":"BOURG_01","name":"Bourgogne","wheelchair_boarding":"unknown"},"type":"Feature"},{"geometry":{"coordinates":[7.7579859723,48.5532025493],"type":"Point"},"properties":{"code":"529B","description":null,"id":"RHTOR_02","name":"Rhin Tortu","wheelchair_boarding":"unknown"},"type":"Feature"},{"geometry":{"coordinates":[7.6999167982,48.4893716457],"type":"Point"},"properties":{"code":"442B","description":null,"id":"OHEGL_02","name":"Ohnheim Eglise","wheelchair_boarding":"unknown"},"type":"Feature"},{"geometry":{"coordinates":[7.7566480636,48.5761033653],"type":"Point"},"properties":{"code":"583A","description":null,"id":"SESOC_03","name":"Sécurité Sociale","wheelchair_boarding":"unknown"},"type":"Feature"},{"geometry":{"coordinates":[7.7513033625,48.653460756],"type":"Point"},"properties":{"code":"794A","description":null,"id":"REPAR_01","name":"Reichstett Rue de Paris","wheelchair_boarding":"unknown"},"type":"Feature"},{"geometry":{"coordinates":[7.720609568,48.5216941258],"type":"Point"},"properties":{"code":"746B","description":null,"id":"VIGNS_02","name":"Vignes","wheelchair_boarding":"unknown"},"type":"Feature"},{"geometry":{"coordinates":[7.7847110107,48.6036004296],"type":"Point"},"properties":{"code":"791C","description":null,"id":"MELAN_03","name":"Mélanie","wheelchair_boarding":"unknown"},"type":"Feature"},{"geometry":{"coordinates":[7.7611577942,48.545544419],"type":"Point"},"properties":{"code":"12B","description":null,"id":"ABEPE_02","name":"Abbé de l'Epée","wheelchair_boarding":"unknown"},"type":"Feature"},{"geometry":{"coordinates":[7.7776621976,48.5682027192],"type":"Point"},"properties":{"code":"32H","description":null,"id":"ARBRI_11","name":"Aristide Briand","wheelchair_boarding":"unknown"},"type":"Feature"},{"geometry":{"coordinates":[7.7262100648,48.5263746454],"type":"Point"},"properties":{"code":"337B","description":null,"id":"LECOR_02","name":"Le Corbusier","wheelchair_boarding":"unknown"},"type":"Feature"},{"geometry":{"coordinates":[7.7478235365,48.6048461221],"type":"Point"},"properties":{"code":"574B","description":null,"id":"SCHMA_02","name":"Schiltigheim Mairie","wheelchair_boarding":"unknown"},"type":"Feature"},{"geometry":{"coordinates":[7.7575781995,48.5933121688],"type":"Point"},"properties":{"code":"368A","description":null,"id":"LYKLE_01","name":"Lycée Kléber","wheelchair_boarding":"unknown"},"type":"Feature"},{"geometry":{"coordinates":[7.70371745,48.58193457],"type":"Point"},"properties":{"code":"278B","description":null,"id":"HOHBE_02","name":"Hohberg","wheelchair_boarding":"unknown"},"type":"Feature"},{"geometry":{"coordinates":[7.710725814,48.509948523],"type":"Point"},"properties":{"code":"827A","description":null,"id":"LOAMP_01","name":"Louis Ampère","wheelchair_boarding":"unknown"},"type":"Feature"},{"geometry":{"coordinates":[7.7617343263,48.5321164383],"type":"Point"},"properties":{"code":"611B","description":null,"id":"STIGN_02","name":"Saint-Ignace","wheelchair_boarding":"unknown"},"type":"Feature"},{"geometry":{"coordinates":[7.7180666768,48.6076730337],"type":"Point"},"properties":{"code":"720A","description":null,"id":"COPEN_01","name":"Copenhague","wheelchair_boarding":"unknown"},"type":"Feature"},{"geometry":{"coordinates":[7.7071093185,48.591488494],"type":"Point"},"properties":{"code":"277A","description":null,"id":"HOHAU_01","name":"Hôpital de Hautepierre","wheelchair_boarding":"unknown"},"type":"Feature"},{"geometry":{"coordinates":[7.7767654515,48.6122906676],"type":"Point"},"properties":{"code":"264C","description":null,"id":"HECEF_01","name":"Hechner/Centre Funéraire","wheelchair_boarding":"unknown"},"type":"Feature"},{"geometry":{"coordinates":[7.7155331522,48.4885764908],"type":"Point"},"properties":{"code":"268A","description":null,"id":"HIESE_01","name":"Hieselrain","wheelchair_boarding":"unknown"},"type":"Feature"},{"geometry":{"coordinates":[7.716720839,48.57976104],"type":"Point"},"properties":{"code":"800A","description":null,"id":"COMTE_01","name":"Comtes","wheelchair_boarding":"unknown"},"type":"Feature"},{"geometry":{"coordinates":[7.7910527354,48.5988165496],"type":"Point"},"properties":{"code":"65B","description":null,"id":"BREME_02","name":"Brême","wheelchair_boarding":"unknown"},"type":"Feature"},{"geometry":{"coordinates":[7.6999748488,48.6232499313],"type":"Point"},"properties":{"code":"431A","description":null,"id":"NIMAI_01","name":"Niederhausbergen Mairie","wheelchair_boarding":"unknown"},"type":"Feature"},{"geometry":{"coordinates":[7.7308046722,48.6222475642],"type":"Point"},"properties":{"code":"650B","description":null,"id":"VIHUG_02","name":"Victor Hugo","wheelchair_boarding":"unknown"},"type":"Feature"},{"geometry":{"coordinates":[7.7091645821,48.5352014624],"type":"Point"},"properties":{"code":"476B","description":null,"id":"PIGEO_02","name":"Pigeons","wheelchair_boarding":"unknown"},"type":"Feature"},{"geometry":{"coordinates":[7.7285803365,48.4888122665],"type":"Point"},"properties":{"code":"267B","description":null,"id":"HETZL_02","name":"Hetzlader","wheelchair_boarding":"unknown"},"type":"Feature"},{"geometry":{"coordinates":[7.7682244696,48.5771466164],"type":"Point"},"properties":{"code":"543B","description":null,"id":"ROMEE_02","name":"Rome","wheelchair_boarding":"unknown"},"type":"Feature"},{"geometry":{"coordinates":[7.6404511261,48.5149868482],"type":"Point"},"properties":{"code":"243A","description":null,"id":"GEOUE_01","name":"Geispolsheim Ouest","wheelchair_boarding":"unknown"},"type":"Feature"},{"geometry":{"coordinates":[7.7619312403,48.5984110227],"type":"Point"},"properties":{"code":"657D","description":null,"id":"WACKE_04","name":"Wacken","wheelchair_boarding":"unknown"},"type":"Feature"},{"geometry":{"coordinates":[7.7380539471,48.5448978748],"type":"Point"},"properties":{"code":"38B","description":null,"id":"BAGGE_02","name":"Baggersee","wheelchair_boarding":"unknown"},"type":"Feature"},{"geometry":{"coordinates":[7.6314310498,48.5314623777],"type":"Point"},"properties":{"code":"28A","description":null,"id":"ANFOR_01","name":"Ancienne Forge","wheelchair_boarding":"unknown"},"type":"Feature"},{"geometry":{"coordinates":[7.7718525285,48.5939170523],"type":"Point"},"properties":{"code":"453B","description":null,"id":"COEUR_02","name":"Conseil de l'Europe","wheelchair_boarding":"unknown"},"type":"Feature"},{"geometry":{"coordinates":[7.7101690379,48.6408547336],"type":"Point"},"properties":{"code":"472A","description":null,"id":"PETIT_01","name":"Petite","wheelchair_boarding":"unknown"},"type":"Feature"},{"geometry":{"coordinates":[7.717325984,48.6666680902],"type":"Point"},"properties":{"code":"642A","description":null,"id":"VEGAR_01","name":"Vendenheim Gare","wheelchair_boarding":"unknown"},"type":"Feature"},{"geometry":{"coordinates":[7.8153965432,48.6758839529],"type":"Point"},"properties":{"code":"361A","description":null,"id":"LWAGO_01","name":"La Wantzenau Le Golf","wheelchair_boarding":"unknown"},"type":"Feature"},{"geometry":{"coordinates":[7.778060213,48.5756119501],"type":"Point"},"properties":{"code":"837A","description":null,"id":"PACIT_01","name":"Parc de la Citadelle","wheelchair_boarding":"unknown"},"type":"Feature"},{"geometry":{"coordinates":[7.7537616672,48.5744529739],"type":"Point"},"properties":{"code":"186C","description":null,"id":"ETBOU_03","name":"Etoile Bourse","wheelchair_boarding":"unknown"},"type":"Feature"},{"geometry":{"coordinates":[7.73581176,48.57744049],"type":"Point"},"properties":{"code":"375L","description":null,"id":"MAARM_14","name":"Musée d'Art Moderne","wheelchair_boarding":"unknown"},"type":"Feature"},{"geometry":{"coordinates":[7.8235843956,48.6607413227],"type":"Point"},"properties":{"code":"364A","description":null,"id":"LWATI_01","name":"La Wantzenau Le Tilleul","wheelchair_boarding":"unknown"},"type":"Feature"},{"geometry":{"coordinates":[7.6989309316,48.5601280308],"type":"Point"},"properties":{"code":"803B","description":null,"id":"MEMER_02","name":"Melina Mercouri","wheelchair_boarding":"unknown"},"type":"Feature"},{"geometry":{"coordinates":[7.7408491405,48.5221741607],"type":"Point"},"properties":{"code":"631B","description":null,"id":"TOSTI_02","name":"Tobias Stimmer","wheelchair_boarding":"unknown"},"type":"Feature"},{"geometry":{"coordinates":[7.7041238616,48.532710758],"type":"Point"},"properties":{"code":"840A","description":null,"id":"LAACH_01","name":"Lac Achard","wheelchair_boarding":"unknown"},"type":"Feature"},{"geometry":{"coordinates":[7.760547077,48.5985777051],"type":"Point"},"properties":{"code":"657B","description":null,"id":"WACKE_06","name":"Wacken","wheelchair_boarding":"unknown"},"type":"Feature"},{"geometry":{"coordinates":[7.6531331396,48.5596218652],"type":"Point"},"properties":{"code":"830A","description":null,"id":"HOLZA_01","name":"Holtzheim ZA","wheelchair_boarding":"unknown"},"type":"Feature"},{"geometry":{"coordinates":[7.7657309458,48.6099232579],"type":"Point"},"properties":{"code":"338A","description":null,"id":"LEMAR_03","name":"Le Marais","wheelchair_boarding":"unknown"},"type":"Feature"},{"geometry":{"coordinates":[7.6890575249,48.491251711],"type":"Point"},"properties":{"code":"23B","description":null,"id":"ALSCH_02","name":"Albert Schweitzer","wheelchair_boarding":"unknown"},"type":"Feature"},{"geometry":{"coordinates":[7.7552142214,48.5857730097],"type":"Point"},"properties":{"code":"527E","description":null,"id":"REPUB_07","name":"République","wheelchair_boarding":"unknown"},"type":"Feature"},{"geometry":{"coordinates":[7.7108527534,48.5307673574],"type":"Point"},"properties":{"code":"291D","description":null,"id":"ILMAI_07","name":"Illkirch Mairie","wheelchair_boarding":"unknown"},"type":"Feature"},{"geometry":{"coordinates":[7.7444063595,48.5908955319],"type":"Point"},"properties":{"code":"485B","description":null,"id":"PLPIE_04","name":"Place de Pierre","wheelchair_boarding":"unknown"},"type":"Feature"},{"geometry":{"coordinates":[7.7117822021,48.6102714417],"type":"Point"},"properties":{"code":"721B","description":null,"id":"LONDR_02","name":"Londres","wheelchair_boarding":"unknown"},"type":"Feature"},{"geometry":{"coordinates":[7.8287676371,48.6534815009],"type":"Point"},"properties":{"code":"191A","description":null,"id":"FAALE_01","name":"Faubourg d'Alençon","wheelchair_boarding":"unknown"},"type":"Feature"},{"geometry":{"coordinates":[7.7672934159,48.5547992761],"type":"Point"},"properties":{"code":"316B","description":null,"id":"KIBIT_04","name":"Kibitzenau","wheelchair_boarding":"unknown"},"type":"Feature"},{"geometry":{"coordinates":[7.6828246191,48.5573466364],"type":"Point"},"properties":{"code":"353A","description":null,"id":"LNMAI_01","name":"Lingolsheim Mairie","wheelchair_boarding":"unknown"},"type":"Feature"},{"geometry":{"coordinates":[7.787551,48.544659],"type":"Point"},"properties":{"code":"426A","description":null,"id":"LORIE_02","name":"Lorient","wheelchair_boarding":"unknown"},"type":"Feature"},{"geometry":{"coordinates":[7.695690922,48.5962280684],"type":"Point"},"properties":{"code":"310C","description":null,"id":"KARIN_03","name":"Karine","wheelchair_boarding":"unknown"},"type":"Feature"},{"geometry":{"coordinates":[7.6841779212,48.4912673133],"type":"Point"},"properties":{"code":"82B","description":null,"id":"CESPO_02","name":"Centre Sportif","wheelchair_boarding":"unknown"},"type":"Feature"},{"geometry":{"coordinates":[7.7620708197,48.5699468242],"type":"Point"},"properties":{"code":"329C","description":null,"id":"LANDS_06","name":"Landsberg","wheelchair_boarding":"unknown"},"type":"Feature"},{"geometry":{"coordinates":[7.7345521011,48.6146792505],"type":"Point"},"properties":{"code":"518B","description":null,"id":"PRUNE_02","name":"Prunelliers","wheelchair_boarding":"unknown"},"type":"Feature"},{"geometry":{"coordinates":[7.6980952404,48.5578299632],"type":"Point"},"properties":{"code":"802B","description":null,"id":"MACAL_02","name":"Maria Callas","wheelchair_boarding":"unknown"},"type":"Feature"},{"geometry":{"coordinates":[7.7055400213,48.6242950867],"type":"Point"},"properties":{"code":"563A","description":null,"id":"RUHOE_01","name":"Rue de Hoenheim","wheelchair_boarding":"unknown"},"type":"Feature"},{"geometry":{"coordinates":[7.7358039468,48.585716875],"type":"Point"},"properties":{"code":"230G","description":null,"id":"GACEN_11","name":"Gare Centrale","wheelchair_boarding":"unknown"},"type":"Feature"},{"geometry":{"coordinates":[7.82224752,48.6627842385],"type":"Point"},"properties":{"code":"359A","description":null,"id":"LWAEG_01","name":"La Wantzenau Eglise","wheelchair_boarding":"unknown"},"type":"Feature"},{"geometry":{"coordinates":[7.7110753709,48.5292475591],"type":"Point"},"properties":{"code":"291C","description":null,"id":"ILMAI_03","name":"Illkirch Mairie","wheelchair_boarding":"unknown"},"type":"Feature"},{"geometry":{"coordinates":[7.753637813,48.5742406611],"type":"Point"},"properties":{"code":"186D","description":null,"id":"ETBOU_1B","name":"Etoile Bourse","wheelchair_boarding":"unknown"},"type":"Feature"},{"geometry":{"coordinates":[7.7547952796,48.5919641958],"type":"Point"},"properties":{"code":"115B","description":null,"id":"CLEME_02","name":"Clémenceau","wheelchair_boarding":"unknown"},"type":"Feature"},{"geometry":{"coordinates":[7.7711613799,48.576455528],"type":"Point"},"properties":{"code":"29A","description":null,"id":"ANKAR_03","name":"Ankara","wheelchair_boarding":"unknown"},"type":"Feature"},{"geometry":{"coordinates":[7.6953491459,48.6519540313],"type":"Point"},"properties":{"code":"702A","description":null,"id":"LORRA_01","name":"Lorraine","wheelchair_boarding":"unknown"},"type":"Feature"},{"geometry":{"coordinates":[7.7764859183,48.5685059695],"type":"Point"},"properties":{"code":"32E","description":null,"id":"ARBRI_06","name":"Aristide Briand","wheelchair_boarding":"unknown"},"type":"Feature"},{"geometry":{"coordinates":[7.784580237,48.6097537029],"type":"Point"},"properties":{"code":"788D","description":null,"id":"ROESC_04","name":"Robertsau L'Escale","wheelchair_boarding":"unknown"},"type":"Feature"},{"geometry":{"coordinates":[7.7824243023,48.5873565384],"type":"Point"},"properties":{"code":"131B","description":null,"id":"COQUI_02","name":"Conseil des Quinze","wheelchair_boarding":"unknown"},"type":"Feature"},{"geometry":{"coordinates":[7.7519263699,48.5618449805],"type":"Point"},"properties":{"code":"319E","description":null,"id":"KRMEI_01","name":"Krimmeri Stade de la Meinau","wheelchair_boarding":"unknown"},"type":"Feature"},{"geometry":{"coordinates":[7.7631452696,48.5542861935],"type":"Point"},"properties":{"code":"47B","description":null,"id":"BERGE_02","name":"Bergerac","wheelchair_boarding":"unknown"},"type":"Feature"},{"geometry":{"coordinates":[7.6350633396,48.5327464348],"type":"Point"},"properties":{"code":"177B","description":null,"id":"ENCEN_02","name":"Entzheim Centre","wheelchair_boarding":"unknown"},"type":"Feature"},{"geometry":{"coordinates":[7.7522423996,48.5892570504],"type":"Point"},"properties":{"code":"655A","description":null,"id":"VOOBE_01","name":"Vosges Oberlin","wheelchair_boarding":"unknown"},"type":"Feature"},{"geometry":{"coordinates":[7.769619009,48.5785154064],"type":"Point"},"properties":{"code":"185B","description":null,"id":"ESPLA_02","name":"Esplanade","wheelchair_boarding":"unknown"},"type":"Feature"},{"geometry":{"coordinates":[7.6430064678,48.5368964973],"type":"Point"},"properties":{"code":"214A","description":null,"id":"FLORA_01","name":"Floralies","wheelchair_boarding":"unknown"},"type":"Feature"},{"geometry":{"coordinates":[7.7540127154,48.5779930093],"type":"Point"},"properties":{"code":"755A","description":null,"id":"AULIZ_01","name":"Austerlitz","wheelchair_boarding":"unknown"},"type":"Feature"},{"geometry":{"coordinates":[7.7551027694,48.625262943],"type":"Point"},"properties":{"code":"679A","description":null,"id":"EMALL_02","name":"Emailleries","wheelchair_boarding":"unknown"},"type":"Feature"},{"geometry":{"coordinates":[7.7462635577,48.581296621],"type":"Point"},"properties":{"code":"322A","description":null,"id":"LAGRR_01","name":"Langstross/Grand Rue","wheelchair_boarding":"unknown"},"type":"Feature"},{"geometry":{"coordinates":[7.781562924,48.56978563],"type":"Point"},"properties":{"code":"756D","description":null,"id":"CITAD_04","name":"Citadelle","wheelchair_boarding":"unknown"},"type":"Feature"},{"geometry":{"coordinates":[7.7299967514,48.491409431],"type":"Point"},"properties":{"code":"229A","description":null,"id":"FUMAR_01","name":"Fusiliers Marins","wheelchair_boarding":"unknown"},"type":"Feature"},{"geometry":{"coordinates":[7.7827117187,48.5892993719],"type":"Point"},"properties":{"code":"522B","description":null,"id":"QUQUI_02","name":"Quartier des Quinze","wheelchair_boarding":"unknown"},"type":"Feature"},{"geometry":{"coordinates":[7.7826431511,48.5891502613],"type":"Point"},"properties":{"code":"522A","description":null,"id":"QUQUI_01","name":"Quartier des Quinze","wheelchair_boarding":"unknown"},"type":"Feature"},{"geometry":{"coordinates":[7.8312664479,48.6551452549],"type":"Point"},"properties":{"code":"239A","description":null,"id":"GELEC_01","name":"Général Leclerc","wheelchair_boarding":"unknown"},"type":"Feature"},{"geometry":{"coordinates":[7.6843581721,48.5488210527],"type":"Point"},"properties":{"code":"311B","description":null,"id":"KASTL_02","name":"Kastler","wheelchair_boarding":"unknown"},"type":"Feature"},{"geometry":{"coordinates":[7.771458723,48.6644631349],"type":"Point"},"properties":{"code":"809B","description":null,"id":"FRLAR_02","name":"François de Larderel","wheelchair_boarding":"unknown"},"type":"Feature"},{"geometry":{"coordinates":[7.700893618,48.6508768486],"type":"Point"},